INSTNM,CITY,STATE,STABBR,ZIP,LATITUDE,LONGITUDE,INSTURL
A Better U Beauty Barber Academy,Albuquerque,New Mexico ,NM,87110,35.11063,-106.583765,https://abuacademy.com/
A T Still University of Health Sciences,Kirksville,Missouri ,MO,63501,40.193648,-92.589183,www.atsu.edu/
ABC Adult School,Cerritos,California ,CA,90703-2801,33.878179,-118.070114,https://www.abcadultschool.edu/
ABC Adult School - Cabrillo Lane,Cerritos,California ,CA,90703-7748,nan,nan,nan
ABC Beauty Academy,Richardson,Texas ,TX,75081,32.931698,-96.685333,www.abcbeautyacademy.webs.com/
ABCO Technology,Inglewood,California ,CA,90304-1551,33.932121,-118.369774,www.abcotechnology.edu/
AI Miami International University of Art and Design,Miami,Florida ,FL,33132-1418,25.790008,-80.18839,www.artinstitutes.edu/miami/
AMG School of Nursing,Brooklyn,New York ,NY,11201-1728,40.692794,-73.982035,amg.edu/
AOMA Graduate School of Integrative Medicine,Austin,Texas ,TX,78745,30.228551,-97.800643,https://aoma.edu/
ASA College,Brooklyn,New York ,NY,11201-9805,40.691464,-73.986076,https://www.asa.edu/
ASI Career Institute,Turnersville,New Jersey ,NJ,08012-1043,39.756604,-75.045442,www.asi.edu/
ASPIRA City College,Philadelphia,Pennsylvania ,PA,19140-2302,40.017493,-75.135042,https://www.aspiracitycollege.edu/
ATA Career Education,Spring Hill,Florida ,FL,34606,28.452699,-82.595376,www.atafl.edu/
ATA College,Louisville,Kentucky ,KY,40223,38.223667,-85.563365,www.ata.edu/
ATA College,Tulsa,Oklahoma ,OK,74146,36.098554,-95.856621,www.tulsa.ata.edu/
ATA College,El Cajon,California ,CA,92020,32.819023,-116.981781,www.advancedtraining.edu/
ATA College-Cincinnati,Cincinnati,Ohio ,OH,45246,39.29671,-84.478867,www.ata.edu/
ATI College-Whittier,Whitter,California ,CA,90603-0000,33.948364,-118.003687,www.ati.edu/
Aaniiih Nakoda College,Harlem,Montana ,MT,59526,48.484196,-108.757816,www.ancollege.edu/
Abcott Institute,Southfield,Michigan ,MI,48075-5227,42.446331,-83.210617,www.abcott.edu/
Abilene Christian University,Abilene,Texas ,TX,79699,32.468943,-99.709797,www.acu.edu/
Abraham Baldwin Agricultural College,Tifton,Georgia ,GA,31793-2601,31.481889,-83.528281,https://www.abac.edu/
Abraham Lincoln University,Glendale,California ,CA,91210,34.146294,-118.256726,https://www.alu.edu/
Academia Serrant Inc,Ponce,Puerto Rico ,PR,00717-1250,18.009658,-66.61529,www.serrant.edu/
Academy College,Bloomington,Minnesota ,MN,55431-1411,44.855722,-93.299809,www.academycollege.edu/
Academy Di Capelli -,East Hartford,Connecticut ,CT,06108-3839,nan,nan,nan
Academy Di Capelli-School of Cosmetology,Wallingford,Connecticut ,CT,06492,41.490402,-72.806335,www.academydicapelli.com/
Academy di Firenze,Jerome,Idaho ,ID,83338-2329,42.723871,-114.519826,www.academydifirenze.com/
Academy for Careers and Technology,Mullins,South Carolina ,SC,29574-6009,34.186433,-79.340157,www.mcact.org/
Academy for Five Element Acupuncture,Gainesville,Florida ,FL,32601,29.650075,-82.321994,www.acupuncturist.edu/
Academy for Jewish Religion-California,Los Angeles,California ,CA,90024,34.070281,-118.438495,www.ajrca.edu/
Academy for Nursing and Health Occupations,West Palm Beach,Florida ,FL,33417,26.70653,-80.121497,www.anho.edu/
Academy for Salon Professionals,Northridge,California ,CA,91324,34.23396,-118.558215,www.academyla.com/
Academy of Art University,San Francisco,California ,CA,94105,37.787943,-122.400578,www.academyart.edu/
Academy of Beauty Professionals,Madison,Wisconsin ,WI,53719,43.05541,-89.490781,abpwi.com/
Academy of Beauty Professionals,Appleton,Wisconsin ,WI,54914-5780,44.266271,-88.461527,abpwi.com/
Academy of Beauty Professionals,Green Bay,Wisconsin ,WI,54303-4838,44.52349,-88.097926,abpi.com/
Academy of Career Training,Kissimmee,Florida ,FL,34741,28.306092,-81.439569,academyofcareertraining.com/
Academy of Careers and Technology,Beckley,West Virginia ,WV,25801,37.795299,-81.165435,www.wvact.net/
Academy of Chinese Culture and Health Sciences,Oakland,California ,CA,94612,37.805972,-122.269839,www.acchs.edu/
Academy of Cosmetology,Merritt Island,Florida ,FL,32953,28.394053,-80.70372,academyofcosmetology.edu/
Academy of Cosmetology Inc,Bozeman,Montana ,MT,59715-3544,45.680544,-111.039848,www.academycosmetology.com/
Academy of Cosmetology and Esthetics NYC,Staten Island,New York ,NY,10306,40.573227,-74.114517,paulmitchell.edu/nyc
Academy of Esthetics and Cosmetology,San Fernando,California ,CA,91340-3212,34.285043,-118.444228,www.aecosmetology.com/
Academy of Hair Design - Austin,Austin,Texas ,TX,78741-1338,nan,nan,www.aohd.com/
Academy of Hair Design-Grenada,Grenada,Mississippi ,MS,38901,33.775198,-89.825313,www.academyofhair.com/grenada-campus
Academy of Hair Design-Jackson,Jackson,Mississippi ,MS,39211,32.376376,-90.147044,www.academyofhair.com/
Academy of Hair Design-Jasper,Jasper,Texas ,TX,75951,30.908648,-94.004879,lufkinhairdesign.com/
Academy of Hair Design-Las Vegas,Las Vegas,Nevada ,NV,89146,36.15846,-115.210473,www.ahdvegas.com/
Academy of Hair Design-Lufkin,Lufkin,Texas ,TX,75904,31.330724,-94.718704,lufkinhairdesign.com/
Academy of Hair Design-Oklahoma City,Oklahoma City,Oklahoma ,OK,73134-8055,35.612955,-97.557189,www.academyofhairdesignok.com/
Academy of Hair Design-Pearl,Pearl,Mississippi ,MS,39208,32.281983,-90.115129,www.academyofhair.com/
Academy of Hair Design-Springfield,Springfield,Missouri ,MO,65804,37.180584,-93.261354,aohd.com/
Academy of Hair Technology,Greenville,South Carolina ,SC,29615-2363,34.874681,-82.327426,www.hairchamps.com/
Academy of Interactive Entertainment,Seattle,Washington ,WA,98109-4623,47.621224,-122.351158,https://seattle.aie.edu/
Academy of Interactive Entertainment,Lafayette,Louisiana ,LA,70506-4293,30.220037,-92.043315,www.lafayette.aie.edu/
Academy of Massage and Bodywork,Bear,Delaware ,DE,19701,39.628779,-75.666786,www.massage-academy.com/
Academy of Natural Therapy Inc,Greeley,Colorado ,CO,80631-9441,40.426259,-104.691075,www.natural-therapy.com/
Academy of Professional Cosmetology,Rogers,Arkansas ,AR,72756-2028,36.35541,-94.157411,www.apcschools.com/
Academy of Salon Professionals,Sedalia,Missouri ,MO,65301,38.690729,-93.251559,www.academyofsalonprofessionals.com/
Academy of Salon and Spa,Fort Smith,Arkansas ,AR,72901,35.38097,-94.41616,www.academysalonspa.com/
Academy of Vocal Arts,Philadelphia,Pennsylvania ,PA,19103-6685,39.94796,-75.173735,www.avaopera.org/
Acaydia School of Aesthetics,Provo,Utah ,UT,84601-0000,40.234627,-111.65823,www.acaydia.com/
Access Careers,Hempstead,New York ,NY,11550-0000,40.709502,-73.61531,www.accesscareers.net/
Access Careers-Islandia,Islandia,New York ,NY,11749-1599,40.800874,-73.175617,www.accesscareers.net/
Ace Cosmetology and Barber Training Center,Waterbury,Connecticut ,CT,06705,41.593956,-72.987416,acetrainingcenters.com/
Ace Institute of Technology,New York,New York ,NY,10018,40.753658,-73.993385,www.acecareer.edu/
Acupuncture and Integrative Medicine College-Berkeley,Berkeley,California ,CA,94704,37.862754,-122.267636,https://www.aimc.edu/
Acupuncture and Massage College,Miami,Florida ,FL,33176,25.686382,-80.364141,www.amcollege.edu/
Adams State University,Alamosa,Colorado ,CO,81101,37.473636,-105.879642,www.adams.edu/
Adelphi University,Garden City,New York ,NY,11530-0701,40.721439,-73.653321,www.adelphi.edu/
Adler Graduate School,Minnetonka,Minnesota ,MN,55343,44.893479,-93.410236,www.alfredadler.edu/
Adler University,Chicago,Illinois ,IL,60602,41.882414,-87.629156,https://www.adler.edu/
Adrian College,Adrian,Michigan ,MI,49221-2575,41.898591,-84.061481,www.adrian.edu/
Adrian H. Wallace Barber Academy,Pensacola,Florida ,FL,32503-2802,30.453536,-87.213526,https://www.ahwbarberacademy.com/
Adrian's Beauty College of Turlock,Turlock,California ,CA,95380,37.491448,-120.863784,www.adrians.edu/
Adult and Community Education-Hudson,Columbus,Ohio ,OH,43211,40.012851,-82.980603,https://www.ccsoh.us/site/Default.aspx?PageID=334
Adult and Continuing Education-BCTS,Hackensack,New Jersey ,NJ,07601-6637,40.900877,-74.035045,bcts.bergen.org/index.php/adedprograms/full-time-adult-day-program
Advance Beauty College,Garden Grove,California ,CA,92843,33.759905,-117.952637,www.advancebeautycollege.com/
Advance Beauty Techs Academy,San Jacinto,California ,CA,92583-6572,33.884074,-117.517655,www.abt.edu/
Advance Science International College,Miami Lakes,Florida ,FL,33014,25.924708,-80.284567,www.asicollege.edu/
Advanced Barber College and Hair Design,Weslaco,Texas ,TX,78596,26.131543,-97.958247,abcrgv.com/
Advanced Beauty College,Irving,Texas ,TX,75038,32.859493,-96.9927,www.advancedbeautycollege.net/
Advanced Career Institute,Visalia,California ,CA,93291,36.344669,-119.38533,https://advanced.edu/
Advanced College,South Gate,California ,CA,90280,33.915383,-118.15794,www.advancedcollege.edu/
Advanced College - Salida,Salida,California ,CA,95368-9072,nan,nan,www.advancedcollege.edu/
Advanced College of Cosmetology,Waupun,Wisconsin ,WI,53963-0000,43.632848,-88.736198,www.accsuccess.com/
Advanced College-Stockton,Stockton,California ,CA,95120-3145,nan,nan,www.advancedcollege.edu/
Advanced Technology Institute,Virginia Beach,Virginia ,VA,23462,36.841381,-76.182268,www.auto.edu/
Advanced Training Institute,Las Vegas,Nevada ,NV,89118-1519,36.09589,-115.206821,www.atitraining.edu/
Advanced Welding Institute,South Burlington,Vermont ,VT,05403,44.45588,-73.139437,www.awi.edu/
Advantage Career Institute,Eatontown,New Jersey ,NJ,07724,40.279075,-74.049694,www.aci.edu/
Advantage Technical College,Manati,Puerto Rico ,PR,00674,18.428049,-66.493084,https://www.adtecpr.com/
Advantage Technical College,San Juan,Puerto Rico ,PR,00907-0000,18.454692,-66.081082,https://www.adtecpr.com/
Advantage Technical College-Aguadilla,Aguadilla,Puerto Rico ,PR,00603-0000,18.433012,-67.154491,https://www.adtecpr.com/
AdventHealth University,Orlando,Florida ,FL,32803,28.576142,-81.367687,www.ahu.edu/
Aesthetic Science Institute,Latham,New York ,NY,12110-1095,42.76194,-73.794947,www.aestheticscienceinstitute.edu/
Agnes Scott College,Decatur,Georgia ,GA,30030-3770,33.769268,-84.295459,www.agnesscott.edu/
Aiken School of Cosmetology and Barbering,Aiken,South Carolina ,SC,29801,33.559545,-81.71728,www.ascandb.com/
Aiken Technical College,Graniteville,South Carolina ,SC,29829,33.533833,-81.841666,https://www.atc.edu/
Aims Community College,Greeley,Colorado ,CO,80634,40.409559,-104.763415,www.aims.edu/
Air Force Institute of Technology-Graduate School of Engineering & Management,Wright-Patterson AFB,Ohio ,OH,45433-7765,39.782221,-84.082618,www.afit.edu/
Alabama A & M University,Normal,Alabama ,AL,35762,34.783368,-86.568502,www.aamu.edu/
Alabama College of Osteopathic Medicine,Dothan,Alabama ,AL,36303-2251,31.206294,-85.340805,https://www.acom.edu/
Alabama School of Nail Technology & Cosmetology,Jackson,Alabama ,AL,36545-2718,31.50997,-87.893386,www.alabamaschoolofnailtechnology.com/
Alabama State College of Barber Styling,Gardendale,Alabama ,AL,35071,33.643546,-86.810488,www.ascbs.edu/
Alabama State University,Montgomery,Alabama ,AL,36104-0271,32.364317,-86.295677,www.alasu.edu/
Alamance Community College,Graham,North Carolina ,NC,27253-8000,36.066683,-79.357657,www.alamancecc.edu/
Alamo City Barber College,San Antonio,Texas ,TX,78250-3227,29.52717,-98.639532,www.alamocitybarbercollege.com/
Alaska Bible College,Palmer,Alaska ,AK,99645,61.598553,-149.111972,www.akbible.edu/
Alaska Career College,Anchorage,Alaska ,AK,99507-1033,61.181443,-149.856954,www.alaskacareercollege.edu/
Alaska Christian College,Soldotna,Alaska ,AK,99669,60.490459,-151.136005,www.alaskacc.edu/
Alaska Pacific University,Anchorage,Alaska ,AK,99508,61.190968,-149.804168,www.alaskapacific.edu/
Alaska Vocational Technical Center,Seward,Alaska ,AK,99664-0889,60.110626,-149.444487,www.avtec.edu/
Albany BOCES-Adult Practical Nursing Program,Albany,New York ,NY,12205,42.745685,-73.835752,https://www.capitalregionboces.org/adult-education/classes-programs/
Albany College of Pharmacy and Health Sciences,Albany,New York ,NY,12208-3492,42.650371,-73.779063,www.acphs.edu/
Albany Law School,Albany,New York ,NY,12208,42.651818,-73.777495,www.albanylaw.edu/
Albany Medical College,Albany,New York ,NY,12208-3479,42.65382,-73.777289,www.amc.edu/
Albany State University,Albany,Georgia ,GA,31705,31.56928,-84.141825,https://www.asurams.edu/
Albany Technical College,Albany,Georgia ,GA,31701,31.55434,-84.174284,www.albanytech.edu/
Albert Einstein College of Medicine,Bronx,New York ,NY,10461-1900,40.852847,-73.846327,www.einsteinmed.org/
Albertus Magnus College,New Haven,Connecticut ,CT,06511-1189,41.332519,-72.923848,https://www.albertus.edu/
Albion College,Albion,Michigan ,MI,49224,42.245049,-84.745639,www.albion.edu/
Albizu University-Miami,Miami,Florida ,FL,33172-2209,25.794178,-80.356315,https://www.albizu.edu/
Albizu University-San Juan,San Juan,Puerto Rico ,PR,00902-3711,18.466573,-66.113908,https://www.albizu.edu/
Albright College,Reading,Pennsylvania ,PA,19612-5234,40.361351,-75.909742,www.albright.edu/home/
Alcorn State University,Alcorn State,Mississippi ,MS,39096-7500,31.877216,-91.142854,www.alcorn.edu/
Alder Graduate School of Education,Redwood City,California ,CA,94062,37.486305,-122.239258,https://aldergse.edu/
Alderson Broaddus University,Philippi,West Virginia ,WV,26416-2035,39.158067,-80.047728,ab.edu/
Alexander Academy,Lunenburg,Massachusetts ,MA,01462-0000,42.587705,-71.769406,www.alexanderacademy.com/
Alexander Paul Institute of Hair Design,Greenville,North Carolina ,NC,27858-3344,35.604962,-77.371696,https://www.alexanderpaul.edu/
Alexandria School of Scientific Therapeutics,Alexandria,Indiana ,IN,46001-0287,40.255608,-85.674016,www.assti.com/
Alexandria Technical & Community College,Alexandria,Minnesota ,MN,56308,45.873107,-95.372369,www.alextech.edu/
Alfred University,Alfred,New York ,NY,14802-1205,42.254476,-77.788106,www.alfred.edu/
Alhambra Beauty College,Alhambra,California ,CA,91801,34.093916,-118.129041,alhambrabeauty.edu/
Alhambra Medical University,Alhambra,California ,CA,91803,34.080181,-118.148684,www.amu.edu/
Alice Lloyd College,Pippa Passes,Kentucky ,KY,41844,37.335087,-82.875068,www.alc.edu/
All Beauty College,Lake Havasu City,Arizona ,AZ,86403-2974,34.49606,-114.338235,abcollege.edu/
All Beauty College,Bullhead City,Arizona ,AZ,86442,35.101946,-114.5945,abcollege.edu/
All Beauty College,Kingman,Arizona ,AZ,86401-2561,35.239812,-114.027481,abcollege.edu/
All-State Career School,Essington,Pennsylvania ,PA,19029,39.866057,-75.303038,www.allstatecareer.edu/
All-State Career School-Pittsburgh,West Mifflin,Pennsylvania ,PA,15122,40.358492,-79.93713,www.allstatecareer.edu/
All-State Career-Baltimore,Baltimore,Maryland ,MD,21224,39.264664,-76.544942,https://www.allstatecareer.edu/
Allan Hancock College,Santa Maria,California ,CA,93454-6399,34.943716,-120.421144,www.hancockcollege.edu/
Allegany College of Maryland,Cumberland,Maryland ,MD,21502-2596,39.652152,-78.730398,www.allegany.edu/
Allegheny College,Meadville,Pennsylvania ,PA,16335-3902,41.64869,-80.147168,https://allegheny.edu/
Allegheny Wesleyan College,Salem,Ohio ,OH,44460-9598,40.86722,-80.861232,awc.edu/
Allegiance Beauty School,Norfolk,Virginia ,VA,23505,36.739517,-76.563917,absbeautyschool.edu/
Allen College,Waterloo,Iowa ,IA,50703-1999,42.530084,-92.340148,www.allencollege.edu/
Allen County Community College,Iola,Kansas ,KS,66749,37.938038,-95.396377,https://www.allencc.edu/
Allen School-Brooklyn,Brooklyn,New York ,NY,11201,40.693797,-73.991546,www.allenschool.edu/
Allen School-Jamaica,Jamaica,New York ,NY,11432,40.704694,-73.796295,www.allenschool.edu/
Allen School-Phoenix,Phoenix,Arizona ,AZ,85053-4064,33.629635,-112.11743,www.allenschool.edu/
Allen University,Columbia,South Carolina ,SC,29204,34.010348,-81.020045,www.allenuniversity.edu/
Allgood Beauty Institute,Frisco,Texas ,TX,75033-4112,33.15731,-96.804131,allgoodbeauty.com/
Alliance Career Center,Alliance,Ohio ,OH,44601,40.911271,-81.111225,www.accrtw.org/
Alliance Computing Solutions,Flushing,New York ,NY,11354-6507,40.76156,-73.831481,www.acs.edu/
Alliance Computing Solutions - NYC,New York,New York ,NY,10018-4313,nan,nan,www.acs.edu/
Alliant International University-Fresno,Fresno,California ,CA,93727,nan,nan,https://www.alliant.edu/
Alliant International University-Irvine,Irvine,California ,CA,92606,nan,nan,https://www.alliant.edu/
Alliant International University-Los Angeles,Alhambra,California ,CA,91803,nan,nan,https://www.alliant.edu/
Alliant International University-Sacramento,Sacramento,California ,CA,95833,nan,nan,https://www.alliant.edu/
Alliant International University-San Diego,San Diego,California ,CA,92131,32.897056,-117.094398,https://www.alliant.edu/
Alliant International University-San Francisco,Emeryville,California ,CA,94608,nan,nan,https://www.alliant.edu/
Allied Health Careers Institute,Murfreesboro,Tennessee ,TN,37130-5996,35.827799,-86.391495,www.ahci.edu/
Allstate Hairstyling & Barber College,Cleveland,Ohio ,OH,44113-3413,41.484002,-81.704403,www.allstatehairstyling.com/
Allure Beauty College,Whitesburg,Kentucky ,KY,41858,37.123363,-82.838909,www.allurebeautycollege.com/
Alma College,Alma,Michigan ,MI,48801-1599,43.38004,-84.672053,alma.edu/
Alpena Community College,Alpena,Michigan ,MI,49707,45.081647,-83.445069,www.alpenacc.edu/
Altierus Career College-Bissonnet,Houston,Texas ,TX,77036-8001,29.677415,-95.544702,https://www.altierus.edu/
Altierus Career College-Norcross,Norcross,Georgia ,GA,30093-2813,33.934121,-84.155475,https://www.altierus.edu/
Altierus Career College-Tampa,Tampa,Florida ,FL,33614-5801,27.996582,-82.497616,https://www.altierus.edu/
Altoona Beauty School Inc,Altoona,Pennsylvania ,PA,16602-6039,40.501861,-78.387852,www.altoonabeautyschool.com/
Altura College,Pullman,Washington ,WA,99163-5842,46.717811,-117.165734,www.alturacollege.com/
Alvernia University,Reading,Pennsylvania ,PA,19607-1799,40.310028,-75.936754,https://www.alvernia.edu/
Alverno College,Milwaukee,Wisconsin ,WI,53234-3922,42.982842,-87.965174,https://www.alverno.edu/
Alvin Community College,Alvin,Texas ,TX,77511-4898,29.396244,-95.240671,www.alvincollege.edu/
Amarillo College,Amarillo,Texas ,TX,79109,35.187839,-101.846988,www.actx.edu/
Amberton University,Garland,Texas ,TX,75041-5595,32.859931,-96.65302,www.amberton.edu/
Ambria College of Nursing,Hoffman Estates,Illinois ,IL,60192,42.075628,-88.2109,ambria.edu/
AmeriTech College-Draper,Draper,Utah ,UT,84020-6545,40.527932,-111.892792,www.ameritech.edu/
America Evangelical University,Gardena,California ,CA,90247-4432,34.041239,-118.308661,www.aeu.edu/
American Academy McAllister Institute of Funeral Service,New York,New York ,NY,10036,40.757105,-73.986466,www.funeraleducation.org/
American Academy of Art College,Chicago,Illinois ,IL,60604-4302,41.87742,-87.624788,https://www.aaart.edu/
American Academy of Cosmetology,Orange Park,Florida ,FL,32065,30.123757,-81.798803,www.aacschool.com/
American Academy of Dramatic Arts-Los Angeles,Los Angeles,California ,CA,90028,34.095378,-118.343701,www.aada.edu/
American Academy of Dramatic Arts-New York,New York,New York ,NY,10016,40.745545,-73.984843,www.aada.edu/
American Academy of Health and Beauty,Manchester,New Hampshire ,NH,03102-5263,42.967431,-71.480701,https://myaahb.com/
American Academy of Health and Wellness,Roseville,Minnesota ,MN,55113,45.015332,-93.18106,www.acupunctureschoolusa.com/
American Advanced Technicians Institute,Hialeah,Florida ,FL,33014,25.884901,-80.323025,www.aati.edu/
American Baptist College,Nashville,Tennessee ,TN,37207-9980,36.202623,-86.789912,www.abcnash.edu/
American Barber and Beauty Academy,Reading,Pennsylvania ,PA,19607-1602,40.316547,-75.939691,americanbarberacademy.com/
American Beauty Academy,Payson,Utah ,UT,84651,40.034634,-111.733488,www.americanbeauty.edu/
American Beauty Academy-West Valley Campus,West Valley City,Utah ,UT,84119,40.692128,-111.938189,americanbeautyutah.com/
American Beauty College,West Covina,California ,CA,91790,34.069367,-117.936959,https://www.americanbeautycollege.edu/
American Beauty School,Bronx,New York ,NY,10462,40.835331,-73.860639,www.americanbeautyschool.edu/
American Beauty Schools,Miami,Florida ,FL,33144-0000,25.761572,-80.327707,www.americanbeautyschools.com/
American Business and Technology University,St Joseph,Missouri ,MO,64506,39.779095,-94.819797,https://abtu.edu/
American Career College-Anaheim,Anaheim,California ,CA,92801-0000,33.849912,-117.975599,https://americancareercollege.edu/
American Career College-Los Angeles,Los Angeles,California ,CA,90004,34.079323,-118.292481,https://americancareercollege.edu/
American Career College-Ontario,Ontario,California ,CA,91764,34.068204,-117.583814,https://americancareercollege.edu/
American College of Acupuncture and Oriental Med,Houston,Texas ,TX,77063-4104,29.735747,-95.524765,www.acaom.edu/
American College of Barbering,Louisville,Kentucky ,KY,40229-2862,38.084678,-85.670147,www.americancollegeofbarbering.com/
American College of Barbering - Florence,Florence,Kentucky ,KY,41042-1801,nan,nan,https://www.amricancollegeofbarbering.com/
American College of Education,Indianapolis,Indiana ,IN,46204,39.76975,-86.160161,www.ace.edu/
American College of Financial Services,King of Prussia,Pennsylvania ,PA,19406,40.101644,-75.394652,https://www.theamericancollege.edu/
American College of Hair Design Inc,Sedalia,Missouri ,MO,65301,38.711715,-93.269026,www.americancollegeofhairdesign.com/
American College of Healthcare Sciences,Portland,Oregon ,OR,97239,45.486902,-122.675858,www.achs.edu/
American College of Healthcare and Technology,Huntington Park,California ,CA,90255,33.98271,-118.224752,www.ach.edu/
American College of Healthcare and Technology,Riverside,California ,CA,92505,33.901581,-117.493507,www.ach.edu/
American College of the Building Arts,Charleston,South Carolina ,SC,29403-4223,32.805094,-79.946888,acba.edu/
American Conservatory Theater,San Francisco,California ,CA,94102,37.786923,-122.410265,www.act-sf.org/
American Educational College,Bayamon,Puerto Rico ,PR,00961,18.397931,-66.15099,www.amedcopr.com/
American Film Institute Conservatory,Los Angeles,California ,CA,90027-1625,34.10767,-118.310018,www.afi.com/
American Fitness and Nutrition Academy,Pasadena,California ,CA,91101-3530,34.1397,-118.131854,afna.edu/
American Hair Academy,Mt. Pleasant,Iowa ,IA,52641,40.962643,-91.524949,americanhairacademy.com/
American Indian OIC Inc,Minneapolis,Minnesota ,MN,55404-2221,44.961993,-93.246155,www.aioic.org/
American Institute,Clifton,New Jersey ,NJ,07011-2379,nan,nan,www.americaninstitute.com/
American Institute of Alternative Medicine,East Brunswick,New Jersey ,NJ,08816,40.438155,-74.392845,massageschoolnewjersey.com/
American Institute of Alternative Medicine,Columbus,Ohio ,OH,43229,40.102442,-82.988733,www.aiam.edu/
American Institute of Beauty,Largo,Florida ,FL,33771,27.915072,-82.749094,www.aibschool.edu/
American Institute of Healthcare & Technology,Stratford,Connecticut ,CT,06615-7149,41.170738,-73.150918,https://www.aiht.edu/
American Institute of Interior Design,Scottsdale,Arizona ,AZ,85254,33.60486,-111.715081,https://www.aiid.edu/
American Institute of Massage Therapy,Santa Ana,California ,CA,92705-5401,33.71488,-117.848291,www.aimtinc.com/
American Institute of Medical Sciences & Education,Piscataway,New Jersey ,NJ,08854,40.56114,-74.437251,www.aimseducation.edu/
American Institute-Clifton,CLIFTON,New Jersey ,NJ,07011,40.873516,-74.130158,www.americaninstitute.com/
American Institute-Somerset,Somerset,New Jersey ,NJ,08873-1100,40.55089,-74.544122,www.americaninstitute.com/
American Institute-Toms River,Toms River,New Jersey ,NJ,08755,40.044556,-74.220894,www.americaninstitute.com/
American Institute-West Hartford,West Hartford,Connecticut ,CT,06110-1922,41.727016,-72.725762,americaninstitute.com/
American InterContinental University,Chandler,Arizona ,AZ,85286,33.278816,-111.804036,www.aiuniv.edu/
American InterContinental University-Atlanta,Atlanta,Georgia ,GA,30328,33.938779,-84.354907,www.aiuniv.edu/online-campus/campus-locations/atlanta
American InterContinental University-Houston,Houston,Texas ,TX,77042,29.728216,-95.548302,www.aiuniv.edu/online-campus/campus-locations/houston
American International College,Springfield,Massachusetts ,MA,01109,42.112346,-72.558338,www.aic.edu/
American Islamic College,Chicago,Illinois ,IL,60613,41.954969,-87.646898,www.aicusa.edu/
American Jewish University,Los Angeles,California ,CA,90077-1519,34.128153,-118.471706,www.aju.edu/
American Massage & Bodywork Institute,Vienna,Virginia ,VA,22182-2245,38.926154,-77.244736,www.ambimassageschool.com/
American Medical Academy,Miami,Florida ,FL,33186-4830,25.66273,-80.393361,www.ama.edu/
American Medical Institute Inc.,Houston,Texas ,TX,77099,29.702418,-95.596735,https://amiinc.net/online-cna.html
American Medical Sciences Center,Glendale,California ,CA,91204-5108,34.147117,-118.256991,www.amsc.edu/
American Musical and Dramatic Academy,New York,New York ,NY,10023,40.772275,-73.987549,www.amda.edu/
American National University,Salem,Virginia ,VA,24153,37.299743,-80.023602,https://www.an.edu/locations/
American National University-Pikeville,Pikeville,Kentucky ,KY,41501-1520,37.539398,-82.607154,https://www.an.edu/locations/
American Public University System,Charles Town,West Virginia ,WV,25414,39.287826,-77.860121,https://www.apus.edu/
American River College,Sacramento,California ,CA,95841-4286,38.65085,-121.349672,https://www.arc.losrios.edu/
American Sentinel College of Nursing and Health Sciences,Waterbury,Connecticut ,CT,06723-2540,39.673548,-104.870151,www.americansentinel.edu/
American Technical Institute,Bayamon,Puerto Rico ,PR,00957-0000,18.379307,-66.184489,www.amtec.edu/
American Trade School,Saint Ann,Missouri ,MO,63074-1807,38.72876,-90.380141,www.americantradeschool.edu/
American University,Washington,District of Columbia ,DC,20016-8001,38.936005,-77.088875,www.american.edu/
American University of Health Sciences,Signal Hill,California ,CA,90755-3612,33.796849,-118.171366,https://www.auhs.edu/
American University of Puerto Rico,Bayamon,Puerto Rico ,PR,00960-2037,18.407058,-66.186631,aupr.edu/
American University of Puerto Rico,Manati,Puerto Rico ,PR,00674-1082,18.434072,-66.478655,aupr.edu/
Amherst College,Amherst,Massachusetts ,MA,01002-5000,42.372459,-72.518493,www.amherst.edu/
Amridge University,Montgomery,Alabama ,AL,36117-3553,32.362609,-86.17401,www.amridgeuniversity.edu/
Amslee Institute,Sarasota,Florida ,FL,34240,27.379792,-82.43363,www.amsleeinstitute.com/
Ana G. Mendez University,Orlando,Florida ,FL,32822,18.388698,-66.061339,www.agmu.edu/
Anabaptist Mennonite Biblical Seminary,Elkhart,Indiana ,IN,46517-1999,41.656013,-85.972165,www.ambs.edu/
Ancilla College,Donaldson,Indiana ,IN,46513-0001,41.337958,-86.445263,https://www.ancilla.edu/
Anderson University,Anderson,South Carolina ,SC,29621-4035,34.5152,-82.640358,www.andersonuniversity.edu/
Anderson University,Anderson,Indiana ,IN,46012-3495,40.112768,-85.664315,https://anderson.edu/
Andrew College,Cuthbert,Georgia ,GA,39840-5550,31.772321,-84.795021,www.andrewcollege.edu/
Andrews University,Berrien Springs,Michigan ,MI,49104,41.963859,-86.355815,www.andrews.edu/
Angeles College,Los Angeles,California ,CA,90010,34.061223,-118.29903,https://www.angelescollege.edu/
Angeles Institute,ARTESIA,California ,CA,90701-2713,33.875772,-118.080741,www.angelesinstitute.edu/
Angelina College,Lufkin,Texas ,TX,75902-1768,31.287444,-94.731625,www.angelina.edu/
Angelo State University,San Angelo,Texas ,TX,76909,31.440914,-100.465051,www.angelo.edu/
Ann Webb Skin Institute,Austin,Texas ,TX,78759-3936,30.419687,-97.751895,awskininstitute.com/
Anna Maria College,Paxton,Massachusetts ,MA,01612-1198,42.330542,-71.91896,www.annamaria.edu/
Anne Arundel Community College,Arnold,Maryland ,MD,21012-1895,39.049813,-76.512223,www.aacc.edu/
Annenberg School of Nursing,Reseda,California ,CA,91335-5426,34.200825,-118.553851,www.asn.edu/
Anoka Technical College,Anoka,Minnesota ,MN,55303,45.216709,-93.416087,www.anokatech.edu/
Anoka-Ramsey Community College,Coon Rapids,Minnesota ,MN,55433-3470,45.172978,-93.351697,www.anokaramsey.edu/
Anoka-Ramsey Community College-Cambridge Campus,Cambridge,Minnesota ,MN,55008-5704,nan,nan,www.anokaramsey.edu/
Another Level Barbering and Cosmetology School,Petersburg,Virginia ,VA,23803-3245,37.228645,-77.403817,www.albcschool.edu/
Anousheh School of Hair,Binghamton,New York ,NY,13903-1559,42.087554,-75.917306,www.anoushehschoolofhair.com/
Anson College of Cosmetology,Wadesboro,North Carolina ,NC,28170-2147,34.963535,-80.055083,ansoncollegeofcosmetology.com/
Antelope Valley Community College District,Lancaster,California ,CA,93536-5426,34.676207,-118.186166,www.avc.edu/
Antilles School of Technical Careers,San Juan,Puerto Rico ,PR,00909,18.438416,-66.059206,https://antillespr.edu/
Antioch College,Yellow Springs,Ohio ,OH,45387,39.799806,-83.888077,antiochcollege.edu/
Antioch University,Yellow Springs,Ohio ,OH,45387,39.80321,-83.908684,midwest.antioch.edu/
Antioch University Online,Yellow Springs,Ohio ,OH,45387,39.80321,-83.908684,online.antioch.edu/
Antioch University-Los Angeles,Culver City,California ,CA,90230-7615,33.988533,-118.384458,www.antiochla.edu/
Antioch University-New England,Keene,New Hampshire ,NH,03431,42.932344,-72.293798,www.antiochne.edu/
Antioch University-PhD Program in Leadership and Change,Yellow Springs,Ohio ,OH,45387,39.80321,-83.908684,www.antioch.edu/gslc/
Antioch University-Santa Barbara,Santa Barbara,California ,CA,93101,34.419203,-119.6958,www.antiochsb.edu/
Antioch University-Seattle,Seattle,Washington ,WA,98121-1814,47.615916,-122.346318,www.antiochseattle.edu/
Aparicio-Levy Technical College,Tampa,Florida ,FL,33610,27.990625,-82.332285,https://www.hillsboroughschools.org/altc
Apex Academy Hair Skin Nails School of Cosmetology,Ontario,Ohio ,OH,44906-1793,40.771672,-82.577702,https://www.apexacademy2013.com/
Apex College of Veterinary Technology,Colorado Springs,Colorado ,CO,80903,38.828277,-104.813477,https://www.apexcvt.edu/
Apex Technical School,Long Island City,New York ,NY,11101,40.75043,-73.941511,www.apexschool.com/
Apollo Career Center,Lima,Ohio ,OH,45806-1497,40.692999,-84.149151,https://www.apollocareercenter.com/adult-education/
Appalachian Beauty School,Belfry,Kentucky ,KY,41514,37.624479,-82.266793,appalachianbeautyschool.com/
Appalachian Bible College,Mount Hope,West Virginia ,WV,25880-9557,37.853335,-81.198867,https://abc.edu/
Appalachian College of Pharmacy,Oakwood,Virginia ,VA,24631,37.211629,-82.006195,www.acp.edu/
Appalachian School of Law,Grundy,Virginia ,VA,24614,37.277669,-82.095648,www.asl.edu/
Appalachian State University,Boone,North Carolina ,NC,28608,36.215536,-81.680583,www.appstate.edu/
Applied Technology Services,Sunset Hills,Missouri ,MO,63127,38.542285,-90.413236,www.appliedtech-stl.com/
Aquinas College,Grand Rapids,Michigan ,MI,49506-1801,42.96019,-85.628785,www.aquinas.edu/
Aquinas Institute of Theology,Saint Louis,Missouri ,MO,63108-3323,38.634329,-90.237795,www.ai.edu/
Arapahoe Community College,Littleton,Colorado ,CO,80160-9002,39.607505,-105.018631,www.arapahoe.edu/
Arcadia University,Glenside,Pennsylvania ,PA,19038-3295,40.092606,-75.163876,https://www.arcadia.edu/
Arclabs,Piedmont,South Carolina ,SC,29673-6729,34.77072,-82.461311,https://www.arclabs.edu/
Arizona Academy of Beauty,Tucson,Arizona ,AZ,85712,32.237253,-110.872305,www.arizonaacademy.com/
Arizona Christian University,Glendale,Arizona ,AZ,85306-3216,33.622952,-112.181776,arizonachristian.edu/
Arizona College of Nursing-Dallas,Dallas,Texas ,TX,75243-1200,32.923106,-96.75999,https://www.arizonacollege.edu/
Arizona College of Nursing-Fort Lauderdale,Fort Lauderdale,Florida ,FL,33334-3637,26.205783,-80.138479,https://www.arizonacollege.edu/
Arizona College of Nursing-Las Vegas,Las Vegas,Nevada ,NV,89113,36.1456,-115.171331,https://www.arizonacollege.edu/
Arizona College of Nursing-Phoenix,Phoenix,Arizona ,AZ,85053-4058,33.635804,-112.117327,https://www.arizonacollege.edu/
Arizona College of Nursing-Tampa,Tampa,Florida ,FL,33607,27.955614,-82.523369,https://www.arizonacollege.edu/
Arizona College of Nursing-Tempe,Tempe,Arizona ,AZ,85282-1840,33.56636,-112.154233,www.arizonacollege.edu/
Arizona College of Nursing-Tempe,Tempe,Arizona ,AZ,85282-1840,33.403079,-111.965808,https://www.arizonacollege.edu/
Arizona College of Nursing-Tucson,Tucson,Arizona ,AZ,85711,32.217803,-110.875881,https://www.arizonacollege.edu/
Arizona College-Mesa,Mesa,Arizona ,AZ,85201,33.418374,-111.873428,https://www.arizonacollege.edu/
Arizona Culinary Institute,Scottsdale,Arizona ,AZ,85259,33.581935,-111.831237,www.azculinary.edu/
Arizona School of Acupuncture and Oriental Medicine,Tucson,Arizona ,AZ,85716-1518,32.264559,-110.929118,www.asaom.edu/
Arizona School of Integrative Studies,Tucson,Arizona ,AZ,85705,32.23013,-110.969111,asismassage.edu/
Arizona State University - Cochise,Sierra Vista,Arizona ,AZ,85635-2317,nan,nan,www.asu.edu/
Arizona State University - Lake Havasu,Lake Havasu City,Arizona ,AZ,86403-6877,nan,nan,www.asu.edu/
Arizona State University - Pima,Tucson,Arizona ,AZ,85709-0001,nan,nan,www.asu.edu/
Arizona State University - Pinal,Casa Grande,Arizona ,AZ,85122,nan,nan,www.asu.edu/
Arizona State University - The Gila Valley,Thatcher,Arizona ,AZ,85552-5545,nan,nan,www.asu.edu/
Arizona State University - Tucson,Tucson,Arizona ,AZ,85745-4284,nan,nan,www.asu.edu/
Arizona State University - Washington D.C.,Washington,District of Columbia ,DC,20006-5407,nan,nan,www.asu.edu/
Arizona State University - Yavapai,Prescott Valley,Arizona ,AZ,86314-2252,nan,nan,www.asu.edu/
Arizona State University - Yuma,Yuma,Arizona ,AZ,85365-6900,nan,nan,www.asu.edu/
Arizona State University Campus Immersion,Tempe,Arizona ,AZ,85287,33.417721,-111.934383,www.asu.edu/
Arizona State University Digital Immersion,Scottsdale,Arizona ,AZ,85257,33.463786,-111.923861,www.asu.edu/
Arizona State University-Downtown Phoenix,Phoenix,Arizona ,AZ,85004,nan,nan,www.asu.edu/
Arizona State University-Polytechnic,Mesa,Arizona ,AZ,85212,nan,nan,www.asu.edu/
Arizona State University-West,Glendale,Arizona ,AZ,85306,nan,nan,www.asu.edu/
Arizona Western College,Yuma,Arizona ,AZ,85365-8834,32.689306,-114.495968,https://www.azwestern.edu/
Arkansas Baptist College,Little Rock,Arkansas ,AR,72202-6068,34.734751,-92.290555,www.arkansasbaptist.edu/
Arkansas Beauty College,Russellville,Arkansas ,AR,72801,35.27902,-93.135369,https://www.arkansasbeautycollege.us/
Arkansas Beauty School-Little Rock,Little Rock,Arkansas ,AR,72209,34.672171,-92.343366,arbs.edu/
Arkansas College of Barbering and Hair Design,Little Rock,Arkansas ,AR,72205-4949,nan,nan,www.acbhd.edu/
Arkansas Colleges of Health Education,Fort Smith,Arkansas ,AR,72916-0366,35.317421,-94.319084,acheedu.org/
Arkansas Northeastern College,Blytheville,Arkansas ,AR,72316-1109,35.898597,-89.921005,www.anc.edu/
Arkansas State University,Jonesboro,Arkansas ,AR,72401,35.842388,-90.679988,www.astate.edu/
Arkansas State University Mid-South,West Memphis,Arkansas ,AR,72301-3829,35.145736,-90.22285,www.asumidsouth.edu/
Arkansas State University Three Rivers,Malvern,Arkansas ,AR,72104-0816,34.378745,-92.821416,www.asutr.edu/
Arkansas State University-Beebe,Beebe,Arkansas ,AR,72012-1000,35.074176,-91.895351,www.asub.edu/
Arkansas State University-Mountain Home,Mountain Home,Arkansas ,AR,72653,36.320466,-92.388581,www.asumh.edu/
Arkansas State University-Newport,Newport,Arkansas ,AR,72112,35.638722,-91.188846,www.asun.edu/
Arkansas Tech University,Russellville,Arkansas ,AR,72801-2222,35.293237,-93.13562,www.atu.edu/
Arkansas Technical School,North Little Rock,Arkansas ,AR,72114,34.753843,-92.266429,www.arktech.edu/
Arkansas Welding Academy,Jacksonville,Arkansas ,AR,72076,34.883474,-92.139911,https://www.arkansasweldingacademy.com/
Arlington Baptist University,Arlington,Texas ,TX,76012-3425,32.739489,-97.156024,https://abu.edu/
Arlington Career Institute,Grand Prairie,Texas ,TX,75050-2636,32.77244,-97.052772,www.arlingtoncareerinstitute.edu/
Arnolds Beauty School,Milan,Tennessee ,TN,38358,35.919195,-88.760125,arnoldsbeautyschool.com/
Arnot Ogden Medical Center,Elmira,New York ,NY,14905-1676,42.101171,-76.828062,www.arnothealth.org/
Arrojo Cosmetology School,New York,New York ,NY,10014,40.72765,-74.005007,www.arrojocosmetology.com/
Art Academy of Cincinnati,Cincinnati,Ohio ,OH,45202-1706,39.108805,-84.513913,www.artacademy.edu/
Art Center College of Design,Pasadena,California ,CA,91103,34.169031,-118.185102,www.artcenter.edu/
Arthur's Beauty College,Fort Smith,Arkansas ,AR,72901-3342,35.379955,-94.410967,www.arthursbeautycollege.com/
Arthur's Beauty College,Conway,Arkansas ,AR,72032,35.109764,-92.445479,www.arthursbeautycollege.com/
Arthur's Beauty College,Jacksonville,Arkansas ,AR,72076,34.891572,-92.102579,arthursbeautycollege.com/
Arthur's Beauty College,Jonesboro,Arkansas ,AR,72401,35.817823,-90.68152,www.arthursbeautycollege.com/
Artistic Academy of Hair Design,Morris Plains,New Jersey ,NJ,07950,40.855589,-74.486405,www.artisticacademy.com/
Artistic Nails and Beauty Academy-Lakeland,Lakeland,Florida ,FL,33801,28.053634,-81.94718,https://www.artistic.edu/
Artistic Nails and Beauty Academy-Tampa,Tampa,Florida ,FL,33605,27.951358,-82.403486,https://www.artistic.edu/
Asbury Theological Seminary,Wilmore,Kentucky ,KY,40390-1199,37.861561,-84.660127,www.asburyseminary.edu/
Asbury University,Wilmore,Kentucky ,KY,40390-1198,37.862029,-84.662606,https://www.asbury.edu/
Ascent College,Hampton,Virginia ,VA,23666,37.04127,-76.409526,ascent.edu/
Asher College,Sacramento,California ,CA,95825,38.587784,-121.415767,www.asher.edu/
Asher Institute of Hampton,Hampton,Virginia ,VA,23666,37.026859,-76.425917,www.aiofhampton.edu/
Asheville-Buncombe Technical Community College,Asheville,North Carolina ,NC,28801-4897,35.570439,-82.554826,www.abtech.edu/
Ashford University,San Diego,California ,CA,92123,32.8273,-117.141961,www.uagc.edu/
Ashland Community and Technical College,Ashland,Kentucky ,KY,41101-3683,38.469201,-82.650664,https://ashland.kctcs.edu/
Ashland County-West Holmes Career Center,Ashland,Ohio ,OH,44805-9377,40.801018,-82.266808,www.acwhcc.org/
Ashland University,Ashland,Ohio ,OH,44805,40.861755,-82.321061,https://www.ashland.edu/
Ashtabula County Technical and Career Campus,Jefferson,Ohio ,OH,44047,41.746864,-80.733023,www.atech.edu/
Asian-American International Beauty College,Westminster,California ,CA,92683,33.759524,-117.991643,www.aabeautycollege.com/
Asnuntuck Community College,Enfield,Connecticut ,CT,06082,41.998409,-72.570177,www.asnuntuck.edu/
Aspen Beauty Academy of Laurel,Laurel,Maryland ,MD,20724,39.099633,-76.822219,www.aspenlaurel.edu/
Aspen University,Phoenix,Arizona ,AZ,85040,39.68614,-104.939111,www.aspen.edu/
Assabet Valley Regional Technical School,Marlborough,Massachusetts ,MA,01752,42.36775,-71.567281,www.assabet.org/
Associated Barber College of San Diego,San Diego,California ,CA,92101-4210,32.719318,-117.159908,sandiegobarbercollege.com/
Associated Beth Rivkah Schools,Brooklyn,New York ,NY,11225-0000,40.665544,-73.950704,https://www.bethrivkah.edu/dhl
Associated Technical College-Los Angeles,Los Angeles,California ,CA,90017-1604,34.056102,-118.272364,www.atcla.edu/
Associated Technical College-San Diego,San Diego,California ,CA,92108-1630,32.773178,-117.135196,www.atcsd.edu/
Assumption College for Sisters,Denville,New Jersey ,NJ,07834,40.905857,-74.490693,www.acs350.org/
Assumption University,Worcester,Massachusetts ,MA,01609-1296,42.294226,-71.828991,https://www.assumption.edu/
Atelier Esthetique Institute of Esthetics,New York,New York ,NY,10001,40.746376,-73.995669,www.aeinstitute.net/
Atenas College,Manati,Puerto Rico ,PR,00674-0000,18.429776,-66.488422,www.atenascollege.edu/
Athena Career Academy,Toledo,Ohio ,OH,43615,41.614633,-83.665339,www.athenacareers.edu/
Athenaeum of Ohio,Cincinnati,Ohio ,OH,45230-2091,39.082926,-84.371927,www.athenaeum.edu/
Athens State University,Athens,Alabama ,AL,35611,34.806793,-86.964698,www.athens.edu/
Athens Technical College,Athens,Georgia ,GA,30601,33.990183,-83.339598,www.athenstech.edu/
Atlanta Institute of Music and Media,Duluth,Georgia ,GA,30096,33.961164,-84.105311,aimm.edu/
Atlanta Metropolitan State College,Atlanta,Georgia ,GA,30310-4448,33.70893,-84.404659,www.atlm.edu/
Atlanta School of Massage,Atlanta,Georgia ,GA,30338,33.922131,-84.311332,www.atlantaschoolofmassage.com/
Atlanta Technical College,Atlanta,Georgia ,GA,30310-4446,33.712009,-84.404995,https://atlantatech.edu/
Atlanta's John Marshall Law School,Atlanta,Georgia ,GA,30303,33.793394,-84.387898,www.johnmarshall.edu/
Atlantic Cape Community College,Mays Landing,New Jersey ,NJ,08330-2699,39.462081,-74.680019,www.atlantic.edu/
Atlantic Institute of Oriental Medicine,Fort Lauderdale,Florida ,FL,33301-3510,26.121964,-80.142235,www.atom.edu/
Atlantic Technical College,Coconut Creek,Florida ,FL,33063-3902,26.24278,-80.192271,www.atlantictechnicalcollege.edu/
Atlantic University College,Guaynabo,Puerto Rico ,PR,00970,18.357395,-66.111714,www.atlanticu.edu/
Atlantis University,Miami,Florida ,FL,33132,25.788978,-80.18942,www.atlantisuniversity.edu/
Auburn Career Center,Concord Twp,Ohio ,OH,44077,41.649238,-81.243798,www.auburncc.org/
Auburn University,Auburn,Alabama ,AL,36849,32.599378,-85.488258,www.auburn.edu/
Auburn University at Montgomery,Montgomery,Alabama ,AL,36117-3596,32.36736,-86.177544,www.aum.edu/
Augsburg University,Minneapolis,Minnesota ,MN,55454,44.966307,-93.240436,www.augsburg.edu/
Augusta School of Massage,Evans,Georgia ,GA,30809,33.529159,-82.135503,www.augustamassage.com/
Augusta Technical College,Augusta,Georgia ,GA,30906,33.418992,-82.048439,www.augustatech.edu/
Augusta University,Augusta,Georgia ,GA,30912,33.47037,-81.989071,www.augusta.edu/
Augustana College,Rock Island,Illinois ,IL,61201-2296,41.502365,-90.55057,www.augustana.edu/
Augustana University,Sioux Falls,South Dakota ,SD,57197-0001,43.525148,-96.736975,www.augie.edu/
Auguste Escoffier School of Culinary Arts-Austin,Austin,Texas ,TX,78752,30.326455,-97.717865,www.escoffier.edu/
Auguste Escoffier School of Culinary Arts-Boulder,Boulder,Colorado ,CO,80305,39.983475,-105.250075,www.escoffier.edu/
Aultman College of Nursing and Health Sciences,Canton,Ohio ,OH,44710-1797,40.796186,-81.404053,https://www.aultmancollege.edu/
Aurora University,Aurora,Illinois ,IL,60506-4892,41.753631,-88.349023,https://aurora.edu/
Austin Career Institute,Austin,Texas ,TX,78757-7066,30.36933,-97.726714,www.austincareerinstitute.edu/
Austin College,Sherman,Texas ,TX,75090-4400,33.646345,-96.596331,www.austincollege.edu/
Austin Community College District,Austin,Texas ,TX,78752,30.322744,-97.712505,www.austincc.edu/
Austin Graduate School of Theology,Austin,Texas ,TX,78752,30.343842,-97.711751,www.austingrad.edu/
Austin Kade Academy,Idaho Falls,Idaho ,ID,83404-5540,43.482859,-112.001128,www.austinkade.com/
Austin Peay State University,Clarksville,Tennessee ,TN,37044,36.533319,-87.354081,www.apsu.edu/
Austin Presbyterian Theological Seminary,Austin,Texas ,TX,78705-5711,30.29201,-97.736958,https://www.austinseminary.edu/
Austin Presbyterian Theological Seminary- YMCA Outdoor Center,Antioch,Tennessee ,TN,37013-2791,nan,nan,https://www.austinseminary.edu/
Austin's Beauty College Inc,Clarksville,Tennessee ,TN,37040-1121,36.521386,-87.362846,www.austinbeautycollege.com/
Automeca Technical College-Aguadilla,Aguadilla,Puerto Rico ,PR,00605,18.448502,-67.1418,www.automeca.com/
Automeca Technical College-Bayamon,Bayamon,Puerto Rico ,PR,00961,18.406325,-66.180088,www.automeca.com/
Automeca Technical College-Caguas,Caguas,Puerto Rico ,PR,00725,18.230554,-66.037144,www.automeca.com/
Automeca Technical College-Ponce,Ponce,Puerto Rico ,PR,00731,18.011391,-66.636854,www.automeca.com/
Automotive Training Center-Exton,Exton,Pennsylvania ,PA,19341-1310,40.058206,-75.643079,www.autotraining.edu/
Automotive Training Center-Warminster,Warminster,Pennsylvania ,PA,18974,40.200656,-75.075375,www.autotraining.edu/
Autry Technology Center,Enid,Oklahoma ,OK,73703-2506,36.419122,-97.89719,autrytech.edu/
Avalon Institute-Aurora,Aurora,Colorado ,CO,80014,39.676308,-104.848602,avalon.edu/locations/aurora-co/
Avalon Institute-Layton,Layton,Utah ,UT,84041,41.089919,-112.003639,avalon.edu/locations/layton-ut/
Avalon Institute-Mesa,Mesa,Arizona ,AZ,85210,33.376583,-111.858305,avalon.edu/locations/mesa-az/
Avalon Institute-Phoenix,Phoenix,Arizona ,AZ,85022,33.641761,-112.068,avalon.edu/locations/phoenix-az/
Avalon School of Cosmetology,Worthington,Minnesota ,MN,56187,43.631842,-95.602503,www.avaloncosmetologyschool.com/
Ave Maria School of Law,Naples,Florida ,FL,34119,26.242138,-81.731358,https://www.avemarialaw.edu/
Ave Maria University,Ave Maria,Florida ,FL,34142-9505,26.335983,-81.438945,www.avemaria.edu/
Aveda Arts & Sciences Institute Minneapolis,Minneapolis,Minnesota ,MN,55414,44.987863,-93.253713,avedaarts.edu/locations/minneapolis
Aveda Arts & Sciences Institute Seattle,Seattle,Washington ,WA,98122,47.614402,-122.32176,avedaarts.edu/
Aveda Arts & Sciences Institute-Baton Rouge,Baton Rouge,Louisiana ,LA,70816-2246,30.426526,-91.054308,avedaarts.edu/
Aveda Arts & Sciences Institute-Covington,Covington,Louisiana ,LA,70433,30.494049,-90.104008,avedaarts.edu/
Aveda Arts & Sciences Institute-Lafayette,Lafayette,Louisiana ,LA,70503-3246,30.206168,-92.042092,avedaarts.edu/
Aveda Arts & Sciences Institute-New York,New York,New York ,NY,10013,40.725861,-74.00497,avedaarts.edu/
Aveda Arts & Sciences Institute-San Antonio,San Antonio,Texas ,TX,78259-2792,29.637354,-98.452126,https://avedaarts.edu/
Aveda Fredric's Institute-Cincinnati,West Chester,Ohio ,OH,45069,39.35541,-84.361091,https://www.avedafi.edu/cincinnati/
Aveda Fredric's Institute-Indianapolis,Carmel,Indiana ,IN,46032,39.908216,-86.066049,https://avedafi.edu/indianapolis/
Aveda Institute Portland-Vancouver Campus,Vancouver,Washington ,WA,98661-7264,45.643767,-122.603849,avedapdx.com/about-our-school/locations/vancouver
Aveda Institute Rochester,Rochester,Minnesota ,MN,55902-2110,nan,nan,https://avedainstituterochester.com/
Aveda Institute-Boise,Boise,Idaho ,ID,83704-4406,43.620545,-116.309994,www.avedaidaho.com/
Aveda Institute-Chapel Hill,Chapel Hill,North Carolina ,NC,27514-7001,35.927944,-79.026769,https://avedafi.edu/chapel-hill/
Aveda Institute-Chicago,Chicago,Illinois ,IL,60657,41.933493,-87.645838,www.douglasj.edu/
Aveda Institute-Columbus,Columbus,Ohio ,OH,43214,40.062719,-83.043021,https://avedafi.edu/columbus/
Aveda Institute-Denver,Denver,Colorado ,CO,80204,39.745214,-104.992758,www.avedainstitutedenver.com/
Aveda Institute-Des Moines,West Des Moines,Iowa ,IA,50266,41.562675,-93.802586,avedainstitutedesmoines.com/
Aveda Institute-Los Angeles,Los Angeles,California ,CA,90024-2808,34.062797,-118.446566,https://avedafi.edu/los-angeles/
Aveda Institute-Madison,Madison,Wisconsin ,WI,53715-0000,43.072676,-89.398711,www.ibw.edu/
Aveda Institute-Maryland,Bel Air,Maryland ,MD,21014-3639,39.531933,-76.349927,avedainstitutemd.edu/
Aveda Institute-New Mexico,Albuquerque,New Mexico ,NM,87104-1160,35.091873,-106.667464,www.avedanm.com/
Aveda Institute-Phoenix,Tempe,Arizona ,AZ,85284,33.338893,-111.968721,avedainspiregreatness.com/phoenix-campus/
Aveda Institute-Portland,Portland,Oregon ,OR,97209-3144,45.525507,-122.68474,avedapdx.com/
Aveda Institute-Provo,Provo,Utah ,UT,84601,40.236621,-111.658335,avedainstituteprovo.com/
Aveda Institute-South Florida,Davie,Florida ,FL,33328,26.070447,-80.251766,https://www.beaveda.com/
Aveda Institute-Tallahassee,Tallahassee,Florida ,FL,32304,30.442037,-84.317892,www.beaveda.com/
Aveda Institute-Tucson,Tucson,Arizona ,AZ,85701,32.220141,-110.968361,www.avedainstitutetucson.com/
Aveda Institute-Twin Falls,Twin Falls,Idaho ,ID,83301,42.593567,-114.461545,www.avedaidaho.com/
Avenue Academy A Cosmetology Institute,Albuquerque,New Mexico ,NM,87112-3449,35.107227,-106.570491,www.theavenueacademy.com/
Avenue Five Institute,Austin,Texas ,TX,78757,30.369503,-97.728961,www.avenuefive.edu/
Avenue Five Institute-South Austin Campus,Austin,Texas ,TX,78704-3259,30.221953,-97.756266,www.avenuefive.edu/
Avera McKennan Hospital School of Radiologic Technology,Sioux Falls,South Dakota ,SD,57117-5045,43.533972,-96.715584,www.avera.org/
Avera Sacred Heart Hospital,Yankton,South Dakota ,SD,57078-3899,42.872359,-97.407865,www.averasacredheart.org/
Averett University,Danville,Virginia ,VA,24541,36.577287,-79.413203,https://www.averett.edu/
Averett University-Non-Traditional Programs,Danville,Virginia ,VA,24541,36.577287,-79.413203,https://gps.averett.edu/
Avery James School of Cosmetology,Lake Charles,Louisiana ,LA,70601,30.202601,-93.219712,averyjamesschool.com/
Avi Career Training,Great Falls,Virginia ,VA,22066,38.974295,-77.296823,www.avicareertraining.com/
Aviation Institute of Maintenance-Atlanta,Duluth,Georgia ,GA,30096,33.948914,-84.147864,https://www.aviationmaintenance.edu/campuses/duluth-ga/index.html
Aviation Institute of Maintenance-Charlotte,Charlotte,North Carolina ,NC,28227-9403,35.161941,-80.736311,https://www.aviationmaintenance.edu/campuses/charlotte-nc/index.html
Aviation Institute of Maintenance-Dallas,Irving,Texas ,TX,75061,32.836068,-96.941822,https://www.aviationmaintenance.edu/campuses/dallas-tx/
Aviation Institute of Maintenance-Fremont,Fremont,California ,CA,94539,37.468594,-121.92135,https://aviationmaintenance.edu/campuses/san-francisco-ca/
Aviation Institute of Maintenance-Houston,Houston,Texas ,TX,77061,29.65852,-95.28262,https://www.aviationmaintenance.edu/campuses/houston-tx/index.html
Aviation Institute of Maintenance-Indianapolis,Indianapolis,Indiana ,IN,46241,39.753062,-86.288273,https://www.aviationmaintenance.edu/campuses/indianapolis-in/
Aviation Institute of Maintenance-Kansas City,Kansas City,Missouri ,MO,64129,39.049869,-94.498289,https://www.aviationmaintenance.edu/campuses/kansas-city-mo/index.html
Aviation Institute of Maintenance-Las Vegas,Las Vegas,Nevada ,NV,89119,36.083117,-115.118122,https://www.aviationmaintenance.edu/campuses/las-vegas-nv/
Aviation Institute of Maintenance-Manassas,Manassas,Virginia ,VA,20109,38.794493,-77.514594,https://www.aviationmaintenance.edu/campuses/washington-dc-va/
Aviation Institute of Maintenance-Norfolk,Norfolk,Virginia ,VA,23518,36.914293,-76.216995,https://www.aviationmaintenance.edu/campuses/norfolk-va/
Aviation Institute of Maintenance-Orlando,Casselberry,Florida ,FL,32707,28.680653,-81.334196,https://www.aviationmaintenance.edu/campuses/orlando-fl/
Aviation Institute of Maintenance-Philadelphia,Philadelphia,Pennsylvania ,PA,19114-1018,40.070184,-75.007237,https://www.aviationmaintenance.edu/campuses/philadelphia-pa/
Aviation Institute of Maintenance-Teterboro,Teterboro,New Jersey ,NJ,07608-1083,40.841265,-74.071874,www.teterboroschool.com/
Aviator College of Aeronautical Science & Technology -  Kissimmee,Kissimmee,Florida ,FL,34741-4620,nan,nan,www.aviatoramt.com/
Aviator College of Aeronautical Science and Technology,Fort Pierce,Florida ,FL,34946,27.48718,-80.367303,www.aviator.edu/
Avila University,Kansas City,Missouri ,MO,64145-1698,38.91339,-94.591758,https://www.avila.edu/
Award Beauty School,Hagerstown,Maryland ,MD,21740-5610,39.640443,-77.720283,www.awardbeautyschool.com/
Ayers Career College,Shreveport,Louisiana ,LA,71118,32.418291,-93.798229,www.ayers.edu/
Azusa Pacific University,Azusa,California ,CA,91702-7000,34.130047,-117.888375,www.apu.edu/
B M Spurr School of Practical Nursing,Glen Dale,West Virginia ,WV,26038,39.946126,-80.752394,https://wvumedicine.org/reynolds-memorial/
B-Unique Beauty and Barber Academy,Greenville,South Carolina ,SC,29607-2314,34.844106,-82.365104,bubba-online.com/
BJ's Beauty & Barber College,Tacoma,Washington ,WA,98409,47.208428,-122.483385,www.bjsbeautyandbarbercollege.com/
BK Cosmo College of Cosmetology,Kerrville,Texas ,TX,78028-4312,30.055075,-99.15037,www.bkcosmo.com/
Babson College,Wellesley,Massachusetts ,MA,02457-0310,42.297017,-71.264057,www.babson.edu/
Bacone College,Muskogee,Oklahoma ,OK,74403-1597,35.777082,-95.334046,www.bacone.edu/
Bais Binyomin Academy,Monsey,New York ,NY,10952,41.123013,-74.078802,https://baisbinyominacademy.com/
Bais HaMedrash and Mesivta of Baltimore,Baltimore,Maryland ,MD,21209-1613,39.379528,-76.674414,www.bhmb.edu/
Bais Medrash Elyon,Monsey,New York ,NY,10952,41.114079,-74.069798,baismedroshelyon.com/
Bais Medrash Mayan Hatorah,Lakewood,New Jersey ,NJ,08701,40.107414,-74.204332,https://baismedrashmayanhatorah.com/
Bais Medrash Toras Chesed,Lakewood,New Jersey ,NJ,08701,40.099704,-74.21127,www.bmtc.edu/
Bais Medrash of Dexter Park,Chestnut Ridge,New York ,NY,10977,41.081404,-74.045927,https://bmdpark.com/
Baker College,Owosso,Michigan ,MI,48867,42.984804,-84.172404,www.baker.edu/
Baker College Center for Graduate Studies,Flint,Michigan ,MI,485071290,nan,nan,www.baker.edu/
Baker College of Auburn Hills,Auburn Hills,Michigan ,MI,48326-9600,nan,nan,www.baker.edu/
Baker College of Cadillac,Cadillac,Michigan ,MI,49601-9600,nan,nan,www.baker.edu/
Baker College of Jackson,Jackson,Michigan ,MI,49202-1290,nan,nan,www.baker.edu/
Baker College of Muskegon,Muskegon,Michigan ,MI,49442-1290,nan,nan,www.baker.edu/
Baker College of Owosso,Owosso,Michigan ,MI,48867-9600,nan,nan,www.baker.edu/
Baker College of Port Huron,Port Huron,Michigan ,MI,48060-1290,nan,nan,www.baker.edu/
Baker University,Baldwin City,Kansas ,KS,66006-0065,38.778712,-95.187346,https://www.bakeru.edu/
Baker University School of Nursing,Topeka,Kansas ,KS,66604-1353,nan,nan,www.bakeru.edu/
Baker University School of Professional and Graduate Studies and Graduate School of Education,Overland Park,Kansas ,KS,66210-1937,nan,nan,www.bakeru.edu/
Bakersfield College,Bakersfield,California ,CA,93305-1299,35.40911,-118.973753,www.bakersfieldcollege.edu/
Bakke Graduate University,Dallas,Texas ,TX,75243-7039,32.894605,-96.753976,https://www.bgu.edu/
Baldwin Beauty School-North Austin,Austin,Texas ,TX,78757-7068,30.365855,-97.729371,baldwinbeautyschools.com/
Baldwin Beauty School-South Austin,Austin,Texas ,TX,78704-4785,30.241662,-97.783062,baldwinbeautyschools.com/
Baldwin Park Adult & Community Education,Baldwin Park,California ,CA,91706-4221,34.09673,-117.959486,www.bpace.bpusd.net/
Baldwin Wallace University,Berea,Ohio ,OH,44017-2088,41.373017,-81.851145,https://www.bw.edu/
Baldy View Regional Occupational Program,Ontario,California ,CA,91761,34.046457,-117.636712,www.baldyviewrop.com/
Ball State University,Muncie,Indiana ,IN,47306,40.203431,-85.409043,www.bsu.edu/
Baltimore City Community College,Baltimore,Maryland ,MD,21215-7893,39.319978,-76.662878,www.bccc.edu/
Baltimore Studio of Hair Design,Baltimore,Maryland ,MD,21201-3444,39.293371,-76.620008,www.baltimorestudio.com/
Bancroft School of Massage Therapy,Worcester,Massachusetts ,MA,01604,42.268973,-71.778113,https://www.bancroftsmt.com/
Bank Street College of Education,New York,New York ,NY,10025,40.805604,-73.966643,www.bankstreet.edu/
Baptist Bible College,Springfield,Missouri ,MO,65803-3498,37.239696,-93.284286,www.gobbc.edu/
Baptist Health College Little Rock,Little Rock,Arkansas ,AR,72210-2827,34.713115,-92.40692,https://www.bhclr.edu/
Baptist Health Sciences University,Memphis,Tennessee ,TN,38104,35.138415,-90.027501,www.baptistu.edu/
Baptist Health System School of Health Professions,San Antonio,Texas ,TX,78229,29.517063,-98.567486,www.bshp.edu/
Baptist Missionary Association Theological Seminary,Jacksonville,Texas ,TX,75766-5407,31.978961,-95.255524,www.bmats.edu/
Baptist University of the Americas,San Antonio,Texas ,TX,78224-1364,29.34998,-98.546081,www.bua.edu/
Barber & Beauty Institute of New York,Hempstead,New York ,NY,11550-6317,40.69983,-73.615341,www.bbiny.edu/#
Barber Institute of Texas,Longview,Texas ,TX,75602-3456,32.46297,-94.732635,www.bit.edu/
Barber School of Pittsburgh,Pittsburgh,Pennsylvania ,PA,15220,40.441863,-80.03416,bsp.edu/
Barber Tech Academy,Orangeburg,South Carolina ,SC,29115-6069,33.492394,-80.856946,www.barbertechacademy.com/
Barber and Beauty Academy of Pennsylvania,Harrisburg,Pennsylvania ,PA,17110,40.27505,-76.825509,www.barberandbeautyacademyofpa.com/
Barclay College,Haviland,Kansas ,KS,67059-0288,37.62012,-99.105351,www.barclaycollege.edu/
Bard College,Annandale-On-Hudson,New York ,NY,12504-5000,42.020386,-73.909927,www.bard.edu/
Bard College - BHSEC Newark,Newark,New Jersey ,NJ,07103-2639,nan,nan,nan
Bard College - Brooklyn Public Library,Brooklyn,New York ,NY,11238-5619,nan,nan,nan
Bard College - Coxsackie Correctional Facility,Coxsackie,New York ,NY,12051-0200,nan,nan,nan
Bard College - Eastern NY Correctional Facility,Napanoch,New York ,NY,12458-0338,nan,nan,nan
Bard College - Fishkill Correctional Facility,Beacon,New York ,NY,12508-0307,nan,nan,nan
Bard College - Green Haven Correctional Facility,Stormville,New York ,NY,12582-0010,nan,nan,nan
Bard College - Holyoke Microcollege,Holyoke,Massachusetts ,MA,01040-3927,nan,nan,nan
Bard College - MAT Program CA,Los Angeles,California ,CA,90010-1757,nan,nan,nan
Bard College - Taconic Correctional Facility,Bedford Hill,New York ,NY,10507-2497,nan,nan,nan
Bard College - Woodbourne Correctional Facility,Woodbourne,New York ,NY,12788-1000,nan,nan,nan
Bard College at Simon's Rock,Great Barrington,Massachusetts ,MA,01230-9702,42.208803,-73.379201,www.simons-rock.edu/
Barnard College,New York,New York ,NY,10027-6598,40.810098,-73.963346,www.barnard.edu/
Barnes-Jewish College Goldfarb School of Nursing,Saint Louis,Missouri ,MO,63110,38.637165,-90.258772,www.barnesjewishcollege.edu/
Barrett and Company School of Hair Design,Nicholasville,Kentucky ,KY,40356-2152,37.866361,-84.580326,https://barrett.edu/
Barry University,Miami,Florida ,FL,33161-6695,25.878908,-80.198925,www.barry.edu/
Barry University Law School,Orlando,Florida ,FL,32807-3673,nan,nan,www.barry.edu/law/
Barstow Community College,Barstow,California ,CA,92311,34.870285,-117.023412,www.barstow.edu/
Barton College,Wilson,North Carolina ,NC,27893-7000,35.734376,-77.913867,https://www.barton.edu/
Barton County Community College,Great Bend,Kansas ,KS,67530,38.403529,-98.731648,www.bartonccc.edu/
Bastyr University,Kenmore,Washington ,WA,98028-4966,47.729935,-122.251708,www.bastyr.edu/
Bates College,Lewiston,Maine ,ME,04240,44.105299,-70.203333,www.bates.edu/
Bates Technical College,Tacoma,Washington ,WA,98405,47.251743,-122.44683,https://www.batestech.edu/
Baton Rouge Community College,Baton Rouge,Louisiana ,LA,70806,30.448276,-91.137935,www.mybrcc.edu/
Baton Rouge General Medical Center School of Nursing & School of Radiologic Technology,Baton Rouge,Louisiana ,LA,70806,30.449088,-91.153084,www.brgeneral.org/medical-education/school-of-nursing/ OR school of radiologic technology
Baton Rouge School of Computers,Baton Rouge,Louisiana ,LA,70809,30.422155,-91.080837,www.brsc.edu/
Bay Area Medical Academy,San Francisco,California ,CA,94108-3623,37.790775,-122.406318,www.bamasf.com/
Bay Area Medical Academy - San Jose Satellite Location,San Jose,California ,CA,95113,nan,nan,www.bamasf.com/
Bay Mills Community College,Brimley,Michigan ,MI,49715,46.454584,-84.607089,www.bmcc.edu/
Bay Path University,Longmeadow,Massachusetts ,MA,01106,42.055088,-72.583382,www.baypath.edu/
Bay State College,Boston,Massachusetts ,MA,02116,42.350966,-71.071615,www.baystate.edu/
Bay de Noc Community College,Escanaba,Michigan ,MI,49829-2511,45.772586,-87.085228,https://www.baycollege.edu/
Bayamon Community College,Bayamon,Puerto Rico ,PR,00961,18.398313,-66.155908,www.bccpr.org/
Baylor College of Medicine,Houston,Texas ,TX,77030-3498,29.7106,-95.395743,www.bcm.edu/
Baylor University,Waco,Texas ,TX,76798,31.546872,-97.121041,www.baylor.edu/
Bayshire Academy of Beauty Craft Inc,Bay City,Michigan ,MI,48708-5614,43.599758,-83.88895,www.bayshirebeautyacademy.edu/
Be'er Yaakov Talmudic Seminary,Spring Valley,New York ,NY,10977,41.1382062,-74.029573,www.byts.edu/
Beacon College,Leesburg,Florida ,FL,34748,28.811281,-81.87415,https://www.beaconcollege.edu/
Beal University,Bangor,Maine ,ME,04401,44.786465,-68.785428,www.beal.edu/
Beau Monde Academy of Barbering and Cosmetology,Portland,Oregon ,OR,97232-1315,45.531839,-122.65456,www.beaumondeacademy.com/
Beaufort County Community College,Washington,North Carolina ,NC,27889,35.533587,-76.96535,www.beaufortccc.edu/
Beaumont Adult School,Beaumont,California ,CA,92223,33.951365,-116.964728,bas.beaumontusd.us/
Beauty Academy of South Florida,Hialeah Gardens,Florida ,FL,33016-2421,25.86289,-80.323571,www.basf.edu/
Beauty Technical College Inc,Tahlequah,Oklahoma ,OK,74465,35.915551,-94.962015,www.beautytechnicalcollege.com/
Beaver Falls Beauty Academy,Beaver Falls,Pennsylvania ,PA,15010-4208,40.754161,-80.320347,bfbeauty.com/
Becker College,Worcester,Massachusetts ,MA,01609-2165,42.269171,-71.811894,www.becker.edu/
Beckfield College-Florence,Florence,Kentucky ,KY,41042,39.017166,-84.641475,www.beckfield.edu/
Beis Medrash Heichal Dovid,Far Rockaway,New York ,NY,11691-4433,40.596845,-73.751633,www.heichaldovid.org/
Bel-Rea Institute of Animal Technology,Denver,Colorado ,CO,80247,39.686194,-104.876207,www.belrea.edu/
Belanger School of Nursing,Schenectady,New York ,NY,12304,42.802979,-73.915884,www.ellisbelangerschoolofnursing.org/
Belhaven University,Jackson,Mississippi ,MS,39202,32.318415,-90.169228,www.belhaven.edu/
Bell Mar Beauty College,Cicero,Illinois ,IL,60804,41.850656,-87.767244,www.bellmar.edu/
Bella Academy of Cosmetology,Manitowoc,Wisconsin ,WI,54220,44.081385,-87.696742,www.bellaacademyoshkosh.com/
Bella Capelli Academy,Monroeville,Pennsylvania ,PA,15146-2388,40.432494,-79.781672,paulmitchell.edu/monroeville
Bella Cosmetology and Barber College,Greenville,Texas ,TX,75402,33.119725,-96.107802,bellacollege.com/
Bellarmine University,Louisville,Kentucky ,KY,40205-0671,38.219279,-85.704997,https://www.bellarmine.edu/
Bellasa Professional Institute,North Miami,Florida ,FL,33161-0000,25.890157,-80.183799,www.bellasa.edu/
Belle Academy of Cosmetology LLC,Waterbury,Connecticut ,CT,06704-1035,41.59749,-73.055819,www.belleacademy.com/
Bellevue College,Bellevue,Washington ,WA,98007-6484,47.584014,-122.150118,https://bellevuecollege.edu/
Bellevue University,Bellevue,Nebraska ,NE,68005-3098,41.150225,-95.91764,www.bellevue.edu/
Bellin College,Green Bay,Wisconsin ,WI,54311,44.468277,-87.921722,https://www.bellincollege.edu/
Bellingham Technical College,Bellingham,Washington ,WA,98225-1599,48.766189,-122.51216,https://www.btc.edu/
Bellus Academy,Manhattan,Kansas ,KS,66502-2838,39.191749,-96.60827,www.bellusacademy.edu/
Bellus Academy-Chula Vista,Chula Vista,California ,CA,91911,32.614773,-117.083738,www.bellusacademy.edu/
Bellus Academy-El Cajon,El Cajon,California ,CA,92021,32.794072,-116.94627,www.bellusacademy.edu/
Bellus Academy-Poway,Poway,California ,CA,92064,32.957184,-117.042531,www.bellusacademy.edu/
Belmont Abbey College,Belmont,North Carolina ,NC,28012-1802,35.260651,-81.041315,www.belmontabbeycollege.edu/
Belmont College,St Clairsville,Ohio ,OH,43950,40.07695,-80.964901,www.belmontcollege.edu/
Belmont University,Nashville,Tennessee ,TN,37212-3757,36.135589,-86.794807,www.belmont.edu/
Beloit College,Beloit,Wisconsin ,WI,53511-5595,42.504022,-89.029285,www.beloit.edu/
Bemidji State University,Bemidji,Minnesota ,MN,56601,47.482341,-94.874119,https://www.bemidjistate.edu/
Ben Franklin Career Center,Dunbar,West Virginia ,WV,25064,38.367234,-81.75353,bf.kana.k12.wv.us/
Bene's Career Academy,New Port Richey,Florida ,FL,34652,28.259612,-82.728584,https://www.benes.edu/
Benedict College,Columbia,South Carolina ,SC,29204-1086,34.012941,-81.020403,www.benedict.edu/
Benedictine College,Atchison,Kansas ,KS,66002-1499,39.572646,-95.111473,www.benedictine.edu/
Benedictine University,Lisle,Illinois ,IL,60532-0900,41.777569,-88.097307,www.ben.edu/
Benjamin Franklin Institute of Technology,Boston,Massachusetts ,MA,02116,42.346023,-71.070231,www.bfit.edu/
Bennett Career Institute,Washington,District of Columbia ,DC,20017,38.93264,-76.995965,www.bennettcareerinstitute.org/
Bennett College,Greensboro,North Carolina ,NC,27401-3239,36.067531,-79.77998,https://www.bennett.edu/
Bennington College,Bennington,Vermont ,VT,05201-6003,42.919547,-73.237799,https://www.bennington.edu/
Bentley University,Waltham,Massachusetts ,MA,02452-4705,42.385995,-71.222839,www.bentley.edu/
Berea College,Berea,Kentucky ,KY,40404-2182,37.57202,-84.292893,https://www.berea.edu/
Bergen Community College,Paramus,New Jersey ,NJ,07652-1595,40.951782,-74.088804,https://www.bergen.edu/
Bergin University of Canine Studies,Penngrove,California ,CA,94951,38.3032182,-122.681602,www.berginu.edu/
Berk Trade and Business School,Long Island City,New York ,NY,11101-8120,40.745021,-73.930982,www.berktradeschool.com/
Berkeley City College,Berkeley,California ,CA,94704,37.869769,-122.269877,www.berkeleycitycollege.edu/wp/
Berkeley College - Westchester Campus,White Plains,New York ,NY,10601,nan,nan,https://berkeleycollege.edu/
Berkeley College-New York,New York,New York ,NY,10017,40.753986,-73.979458,https://berkeleycollege.edu/
Berkeley College-Woodland Park,Woodland Park,New Jersey ,NJ,07424,40.898587,-74.189483,https://berkeleycollege.edu/
Berkeley School of Theology,Berkeley,California ,CA,94704-3029,37.865252,-122.256149,www.bst.edu/
Berklee College of Music,Boston,Massachusetts ,MA,02215,42.346646,-71.089405,www.berklee.edu/
Berkowits School of Electrolysis,Forest Hills,New York ,NY,11375-6820,40.709736,-73.845213,estheticsschoolny.com/
Berks Career & Technology Center,Leesport,Pennsylvania ,PA,19533-9112,40.388341,-76.000808,www.berkscareer.com/
Berkshire Community College,Pittsfield,Massachusetts ,MA,01201-5786,42.45975,-73.314704,www.berkshirecc.edu/
Berry College,Mount Berry,Georgia ,GA,30149,34.290414,-85.189202,https://www.berry.edu/
Best Care College,East Orange,New Jersey ,NJ,07018-1703,40.765332,-74.221116,bestcarecollege.edu/
Bet Medrash Gadol Ateret Torah,Brooklyn,New York ,NY,11223-1933,40.607809,-73.969945,betmedrashgadolaterettorah.com/
Beth Hamedrash Shaarei Yosher Institute,Brooklyn,New York ,NY,11204,40.635444,-73.981202,bhsy.edu/
Beth Medrash Govoha,Lakewood,New Jersey ,NJ,08701-2754,40.09568,-74.2221,yeshivanotices.org/
Beth Medrash Meor Yitzchok,Monsey,New York ,NY,10952-4023,41.100906,-74.060843,https://bethmedrashmeoryitzchok.com/
Beth Medrash of Asbury Park,Lakewood,New Jersey ,NJ,08701-5842,40.043705,-74.210816,https://baismedrashzichronmeir.com/
Bethany College,Lindsborg,Kansas ,KS,67456-1897,38.580598,-97.67367,https://www.bethanylb.edu/
Bethany College,Bethany,West Virginia ,WV,26032,40.205819,-80.560056,www.bethanywv.edu/
Bethany Global University,Bloomington,Minnesota ,MN,55438-2849,44.795501,-93.371754,https://www.bethanygu.edu/
Bethany Lutheran College,Mankato,Minnesota ,MN,56001,44.166649,-93.990805,https://www.blc.edu/
Bethany Theological Seminary,Richmond,Indiana ,IN,47374-4019,39.826244,-84.910689,www.bethanyseminary.edu/
Bethel College-North Newton,North Newton,Kansas ,KS,67117-1716,38.075169,-97.343256,www.bethelks.edu/
Bethel Seminary-San Diego,San Diego,California ,CA,92115,32.765387,-117.06605,https://www.bethel.edu/
Bethel University,Saint Paul,Minnesota ,MN,55112,45.057655,-93.161663,https://www.bethel.edu/
Bethel University,Mishawaka,Indiana ,IN,46545-5591,41.678399,-86.194686,www.betheluniversity.edu/
Bethel University,McKenzie,Tennessee ,TN,38201,36.137848,-88.516762,www.bethelu.edu/
Bethesda University,Anaheim,California ,CA,92801,33.842295,-117.941323,www.buc.edu/
Bethlehem College & Seminary,Minneapolis,Minnesota ,MN,55415-1793,44.968872,-93.255399,bcsmn.edu/
Bethune-Cookman University,Daytona Beach,Florida ,FL,32114-3099,29.207195,-81.032946,www.cookman.edu/
Beulah Heights University,Atlanta,Georgia ,GA,30316,33.736993,-84.35768,www.beulah.edu/
Beverly Hills Design Institute,Beverly Hills,California ,CA,90211,34.06463,-118.375621,https://www.bhdi.edu/
Bevill State Community College,Jasper,Alabama ,AL,35501,33.836929,-87.266406,www.bscc.edu/
Bexley Hall Seabury Western Theological Seminary Federation Inc.,Chicago,Illinois ,IL,60637,41.785693,-87.591173,www.bexleyseabury.edu/
Beyond 21st Century Beauty Academy,Santa Fe Springs,California ,CA,90670,33.916443,-118.041477,beyondcosmo.com/
Beyond Measure Barbering Institute,Mebane,North Carolina ,NC,27302-2323,36.098405,-79.276539,www.beyondmeasurebarbering.com/
Big Bend Community College,Moses Lake,Washington ,WA,98837-3299,47.183651,-119.325678,https://www.bigbend.edu/
Big Bend Technical College,Perry,Florida ,FL,32348,30.077954,-83.565783,https://www.bbtc.edu/
Big Sandy Community and Technical College,Prestonsburg,Kentucky ,KY,41653,37.688248,-82.778847,https://bigsandy.kctcs.edu/
Binghamton University,Vestal,New York ,NY,13850-6000,42.087868,-75.966889,www.binghamton.edu/
Biola University,La Mirada,California ,CA,90639-0001,33.906203,-118.014374,https://www.biola.edu/
Birmingham-Southern College,Birmingham,Alabama ,AL,35254,33.513774,-86.850552,www.bsc.edu/
Birthingway College of Midwifery,Beaverton,Oregon ,OR,97005,45.483729,-122.824926,birthingway.edu/
Birthwise Midwifery School,Bridgton,Maine ,ME,04009-1110,44.052323,-70.713985,www.birthwisemidwifery.edu/
Bishop State Community College,Mobile,Alabama ,AL,36603-5898,30.693972,-88.056982,www.bishop.edu/
Bismarck State College,Bismarck,North Dakota ,ND,58506-5587,46.821459,-100.816534,https://bismarckstate.edu/
Bitterroot School of Cosmetology,Hamilton,Montana ,MT,59840,46.273475,-114.159449,bitterrootschoolofcosmetology.org/
Black Hawk College,Moline,Illinois ,IL,61265-5899,41.477283,-90.447799,www.bhc.edu/
Black Hills State University,Spearfish,South Dakota ,SD,57799-9500,44.494889,-103.870966,www.bhsu.edu/
Black River Technical College,Pocahontas,Arkansas ,AR,72455,36.239793,-90.951033,www.blackrivertech.edu/
Blackburn College,Carlinville,Illinois ,IL,62626,39.287896,-89.870241,www.blackburn.edu/
Blackfeet Community College,Browning,Montana ,MT,59417-0819,48.551927,-113.009387,bfcc.edu/
Blackhawk Technical College,Janesville,Wisconsin ,WI,53547-5009,42.593159,-89.016254,www.blackhawk.edu/
Blackstone Valley Vocational Regional School District,Upton,Massachusetts ,MA,01568-1499,42.16382,-71.616243,www.valleytech.k12.ma.us/
Bladen Community College,Dublin,North Carolina ,NC,28332,34.644691,-78.731119,www.bladencc.edu/
Blades School of Hair Design,California,Maryland ,MD,20619,38.286299,-76.48376,bladesschoolofhairdesign.net/
Blake Austin College,Vacaville,California ,CA,95687,38.378548,-121.945606,www.blakeaustincollege.edu/
Blake Austin College Beauty Academy,Vacaville,California ,CA,95688-3123,nan,nan,blakeaustincollege.edu/
Blalock's Professional Beauty College,Shreveport,Louisiana ,LA,71108-5745,32.426006,-93.78425,blalockbeauty.com/
Blessing Hospital School of Radiologic Technology,Quincy,Illinois ,IL,62305-7005,39.935084,-91.391542,www.blessinghealthsystem.org/
Blessing Rieman College of Nursing and Health Sciences,Quincy,Illinois ,IL,62305-7005,39.949641,-91.357497,www.brcn.edu/
Blinn College,Brenham,Texas ,TX,77833-4098,30.160457,-96.40852,www.blinn.edu/
Bloomfield College,Bloomfield,New Jersey ,NJ,07003,40.795105,-74.194309,www.bloomfield.edu/
Bloomsburg University of Pennsylvania,Bloomsburg,Pennsylvania ,PA,17815,41.00782,-76.447844,www.bloomu.edu/
Blue Cliff Career College,Mobile,Alabama ,AL,36606,30.670281,-88.114952,www.blue.edu/
Blue Cliff College,Metairie,Louisiana ,LA,70006-0000,nan,nan,www.bluecliffcollege.edu/
Blue Cliff College-Alexandria,Alexandria,Louisiana ,LA,71301,31.276699,-92.475371,bluecliffcollege.edu/
Blue Cliff College-Fayetteville,Fayetteville,Arkansas ,AR,72703,36.11393,-94.144491,bluecliffcollege.com/
Blue Cliff College-Gulfport,Gulfport,Mississippi ,MS,39503,30.442482,-89.039348,bluecliffcollege.edu/
Blue Cliff College-Houma,Houma,Louisiana ,LA,70360,29.59157,-90.718451,bluecliffcollege.edu/
Blue Cliff College-Lafayette,Lafayette,Louisiana ,LA,70508,30.18811,-92.011131,bluecliffcollege.edu/
Blue Cliff College-Metairie,Metairie,Louisiana ,LA,70002-5714,30.002779,-90.172771,www.bluecliffcollege.edu/
Blue Hills Regional Technical School,Canton,Massachusetts ,MA,02021,42.18221,-71.104081,www.bluehills.org/postgraduate-practical-nursing-program/
Blue Mountain College,Blue Mountain,Mississippi ,MS,38610,34.67209,-89.02924,www.bmc.edu/
Blue Mountain Community College,Pendleton,Oregon ,OR,97801,45.677313,-118.816944,https://www.bluecc.edu/
Blue Ridge Community College,Flat Rock,North Carolina ,NC,28731-4728,35.30804,-82.425544,www.blueridge.edu/
Blue Ridge Community College,Weyers Cave,Virginia ,VA,24486-0080,38.279075,-78.937471,https://www.brcc.edu/
Blue Ridge Community and Technical College,Martinsburg,West Virginia ,WV,25403,39.43529,-78.001918,www.blueridgectc.edu/
Bluefield College - Edward Via College of Osteopathic Medicine,Blacksburg,Virginia ,VA,24060-6832,nan,nan,www.bluefield.edu/
Bluefield State College,Bluefield,West Virginia ,WV,24701-2198,37.265732,-81.239037,https://bluefieldstate.edu/
Bluefield University,Bluefield,Virginia ,VA,24605,37.244557,-81.246233,www.bluefield.edu/
Bluegrass Community and Technical College,Lexington,Kentucky ,KY,40506,38.024808,-84.503665,https://bluegrass.kctcs.edu/
Bluffton University,Bluffton,Ohio ,OH,45817-2104,40.895606,-83.899439,www.bluffton.edu/
Blush School of Makeup,San Francisco,California ,CA,94111-3628,37.794885,-122.399413,https://blushschoolofmakeup.edu/
Bnos Zion Of Bobov Seminary,Brooklyn,New York ,NY,11219-3621,40.633353,-73.991157,https://www.bnoszionbobov.com/
Bob Jones University,Greenville,South Carolina ,SC,29614-0001,34.874016,-82.365838,www.bju.edu/
Boca Beauty Academy,Boca Raton,Florida ,FL,33434-4178,26.366888,-80.167216,www.bocabeautyacademy.edu/
Boca Beauty Academy-Parkland,Parkland,Florida ,FL,33073-4526,26.321755,-80.203872,www.bocabeautyacademy.edu/
Boise Barber College,Boise,Idaho ,ID,83709,43.588823,-116.278054,boisebarbercollege.com/
Boise Bible College,Boise,Idaho ,ID,83714-1220,43.658651,-116.291321,https://boisebible.edu/
Boise State University,Boise,Idaho ,ID,83725,43.604284,-116.203301,https://www.boisestate.edu/
Bold Beauty Academy,Billings,Montana ,MT,59101,45.776969,-108.540146,boldbeautyacademy.com/
Bolivar Technical College,Bolivar,Missouri ,MO,65613-8095,37.623766,-93.421572,www.bolivarcollege.org/
Bon Secours Memorial College of Nursing,Richmond,Virginia ,VA,23227-1149,37.646698,-77.433569,www.bsmcon.edu/
Bon Secours St Mary's Hospital School of Medical Imaging,Richmond,Virginia ,VA,23227,37.64687,-77.433201,www.mysomi.org/
Bonnie Joseph Academy of Cosmetology & Barbering,Heber City,Utah ,UT,84032-2044,40.505437,-111.413846,bonniejosephacademy.com/
Boricua College,New York,New York ,NY,10032-1560,40.833434,-73.9458,boricuacollege.edu/
Borner's Barber College,Los Angeles,California ,CA,90047,33.95588,-118.309291,www.bornersbarbercollege.com/
Bos-Man's Barber College,Shreveport,Louisiana ,LA,71108,32.442955,-93.782849,www.bosmansbarbercollege.com/
Bossier Parish Community College,Bossier City,Louisiana ,LA,71111-6922,32.539551,-93.646881,www.bpcc.edu/
Boston Architectural College,Boston,Massachusetts ,MA,02115-2703,42.348467,-71.085786,www.the-bac.edu/
Boston Baptist College,Boston,Massachusetts ,MA,02136-4030,42.254037,-71.1103,www.boston.edu/
Boston College,Chestnut Hill,Massachusetts ,MA,02467,42.336213,-71.169242,www.bc.edu/
Boston Graduate School of Psychoanalysis Inc,Brookline,Massachusetts ,MA,02446,42.33912,-71.133151,https://www.bgsp.edu/
Boston University,Boston,Massachusetts ,MA,02215,42.351118,-71.107942,www.bu.edu/
Bowdoin College,Brunswick,Maine ,ME,04011,43.907134,-69.963942,https://www.bowdoin.edu/
Bowie State University,Bowie,Maryland ,MD,20715-9465,39.018185,-76.759721,www.bowiestate.edu/
Bowling Green State University-Firelands,Huron,Ohio ,OH,44839-9791,41.397521,-82.594156,https://www.firelands.bgsu.edu/
Bowling Green State University-Main Campus,Bowling Green,Ohio ,OH,43403,41.375513,-83.640896,www.bgsu.edu/
Bradley University,Peoria,Illinois ,IL,61625-0001,40.696896,-89.616786,www.bradley.edu/
Brand College,Glendale,California ,CA,91203,34.15799,-118.265551,brandcollege.edu/
Brandeis University,Waltham,Massachusetts ,MA,02454-9110,42.365727,-71.260155,https://www.brandeis.edu/
Branford Academy of Hair and Cosmetology,Branford,Connecticut ,CT,06405,41.277187,-72.8537,www.branfordacademy.com/
Brazosport College,Lake Jackson,Texas ,TX,77566,29.048604,-95.40934,www.brazosport.edu/
Brenau University,Gainesville,Georgia ,GA,30501-3668,34.303117,-83.821513,www.brenau.edu/
Brescia University,Owensboro,Kentucky ,KY,42301-3023,37.769041,-87.111639,www.brescia.edu/
Brevard College,Brevard,North Carolina ,NC,28712,35.236763,-82.729494,https://www.brevard.edu/
Brewster Technical College,Tampa,Florida ,FL,33602,27.96373,-82.461722,www.brewster.edu/
Brewton-Parker College,Mount Vernon,Georgia ,GA,30445,32.185718,-82.586136,https://www.bpc.edu/
Briar Cliff University,Sioux City,Iowa ,IA,51104,42.526443,-96.428444,www.briarcliff.edu/
BridgeValley Community & Technical College,South  Charleston,West Virginia ,WV,25136,38.353846,-81.6983,www.bridgevalley.edu/
Bridgerland Technical College,Logan,Utah ,UT,84321,41.756188,-111.850619,www.btech.edu/
Bridges Beauty College,Victorville,California ,CA,92395-3821,34.528602,-117.303933,www.bridgesbeautycollege.com/
Bridgewater College,Bridgewater,Virginia ,VA,22812-1599,38.378484,-78.969007,https://www.bridgewater.edu/
Bridgewater State University,Bridgewater,Massachusetts ,MA,02325,41.98749,-70.974553,www.bridgew.edu/
Brigham Young University,Provo,Utah ,UT,84602,40.250851,-111.649281,www.byu.edu/
Brigham Young University-Hawaii,Laie,Hawaii ,HI,96762-1294,21.642074,-157.926586,www.byuh.edu/
Brigham Young University-Idaho,Rexburg,Idaho ,ID,83460-1690,43.818408,-111.782431,www.byui.edu/
Brighton Center's Center for Employment Training,Newport,Kentucky ,KY,41071-1968,39.092904,-84.490096,www.brightoncenter.com/
Brighton Institute of Cosmetology,Brighton,Michigan ,MI,48116-8360,42.521018,-83.743486,www.brightoninstitute.net/
Brightpoint Community College,Chester,Virginia ,VA,23831-5316,37.346254,-77.407919,https://jtcc.edu/
Brillare Beauty Institute,Cleveland,Tennessee ,TN,37312-3862,35.191417,-84.881446,www.brillarebeautyinstitute.edu/
Bristol Community College,Fall River,Massachusetts ,MA,02720-7395,41.721994,-71.119133,www.bristolcc.edu/
Bristol Technical Education Center,Bristol,Connecticut ,CT,06010,41.69004,-72.990101,bristol.cttech.org/
Brite Divinity School,Fort Worth,Texas ,TX,76129,32.710145,-97.359137,www.brite.edu/
Brittany Beauty Academy,Levittown,New York ,NY,11756-1345,40.72479,-73.516164,https://brittanyacademy.edu/
Brittany Beauty Academy,Brooklyn,New York ,NY,11209,40.62318,-74.028581,brittanyacademy.edu/
Brittany Beauty Academy,Bronx,New York ,NY,10458,40.860976,-73.897121,https://brittanyacademy.edu/
Broadview College,West Jordan,Utah ,UT,84088,40.609883,-111.942296,https://www.broadview.edu/
Broken Arrow Beauty College,Tulsa,Oklahoma ,OK,74133,36.060431,-95.852816,www.babeautycollege.com/
Brookdale Community College,Lincroft,New Jersey ,NJ,07738-1597,40.324906,-74.132746,https://www.brookdalecc.edu/
Brookline College-Albuquerque,Albuquerque,New Mexico ,NM,87105,35.08781,-106.68749,www.brooklinecollege.edu/
Brookline College-Phoenix,Phoenix,Arizona ,AZ,85021,33.566102,-112.112473,www.brooklinecollege.edu/
Brookline College-Tempe,Tempe,Arizona ,AZ,85281,33.4163,-111.961365,brooklinecollege.edu/
Brookline College-Tucson,Tucson,Arizona ,AZ,85711,32.207932,-110.876375,www.brooklinecollege.edu/
Brooklyn Law School,Brooklyn,New York ,NY,11201,40.691836,-73.989623,www.brooklaw.edu/
Broome Delaware Tioga BOCES-Practical Nursing Program,Binghamton,New York ,NY,13905,42.129648,-75.934739,www.btboces.org/
Broward College,Fort Lauderdale,Florida ,FL,33301,26.119422,-80.14183,www.broward.edu/
Brown & Clermont Adult Career Campuses,Bethel,Ohio ,OH,45106,38.969393,-84.094071,www.grantcareer.com/
Brown Aveda Institute-Mentor,Mentor,Ohio ,OH,44060,41.672002,-81.324318,www.brownaveda.com/
Brown Aveda Institute-Strongsville,Strongsville,Ohio ,OH,44136,41.312522,-81.826226,www.brownaveda.com/
Brown Beauty Barber School,Bessemer,Alabama ,AL,35020-5016,33.399873,-86.953134,brownbeautybarberschool.edu/
Brown University,Providence,Rhode Island ,RI,02912,41.82617,-71.40385,www.brown.edu/
Brownson Technical School,Anaheim,California ,CA,92805,33.819032,-117.905774,https://brownson.edu/
Brunswick Community College,Bolivia,North Carolina ,NC,28422-9021,34.038973,-78.22979,www.brunswickcc.edu/
Bryan College of Health Sciences,Lincoln,Nebraska ,NE,68506,40.796768,-96.651532,https://www.bryanhealthcollege.edu/bcohs/
Bryan College-Dayton,Dayton,Tennessee ,TN,37321,35.497209,-84.999552,www.bryan.edu/
Bryan University,Tempe,Arizona ,AZ,85281,33.437779,-111.944197,bryanuniversity.edu/
Bryan University,Springfield,Missouri ,MO,65804,37.135397,-93.248107,www.bryanu.edu/
Bryan University,Rogers,Arkansas ,AR,72756,36.334163,-94.17008,www.bryanu.edu/
Bryant & Stratton College-Akron,Copley,Ohio ,OH,44321-2798,nan,nan,https://www.bryantstratton.edu/
Bryant & Stratton College-Albany,Albany,New York ,NY,12205,42.698125,-73.809977,https://www.bryantstratton.edu/
Bryant & Stratton College-Amherst,Getzville,New York ,NY,14068,nan,nan,https://www.bryantstratton.edu/
Bryant & Stratton College-Bayshore,Glendale,Wisconsin ,WI,53217,nan,nan,https://www.bryantstratton.edu/
Bryant & Stratton College-Buffalo,Buffalo,New York ,NY,14203,42.886492,-78.873296,https://www.bryantstratton.edu/
Bryant & Stratton College-Cleveland,Cleveland,Ohio ,OH,44115-2798,nan,nan,https://www.bryantstratton.edu/
Bryant & Stratton College-Greece,Rochester,New York ,NY,14612,43.240547,-77.69559,https://www.bryantstratton.edu/
Bryant & Stratton College-Hampton,Hampton,Virginia ,VA,23666,nan,nan,https://www.bryantstratton.edu/
Bryant & Stratton College-Henrietta,Rochester,New York ,NY,14623,nan,nan,https://www.bryantstratton.edu/
Bryant & Stratton College-Online,Orchard Park,New York ,NY,14127,42.790174,-78.770363,https://www.bryantstratton.edu/
Bryant & Stratton College-Parma,Parma,Ohio ,OH,44130-3151,41.404607,-81.781757,https://www.bryantstratton.edu/
Bryant & Stratton College-Racine,Mount Pleasant,Wisconsin ,WI,53406-4375,nan,nan,https://www.bryantstratton.edu/
Bryant & Stratton College-Richmond,North Chesterfield,Virginia ,VA,23235,nan,nan,https://www.bryantstratton.edu/
Bryant & Stratton College-Solon,Solon,Ohio ,OH,44139-2798,nan,nan,https://www.bryantstratton.edu/
Bryant & Stratton College-Southtowns,Orchard Park,New York ,NY,14127,nan,nan,https://www.bryantstratton.edu/
Bryant & Stratton College-Syracuse,Syracuse,New York ,NY,13203-2502,nan,nan,https://www.bryantstratton.edu/
Bryant & Stratton College-Syracuse North,Liverpool,New York ,NY,13090,43.149337,-76.230807,https://www.bryantstratton.edu/
Bryant & Stratton College-Virginia Beach,Virginia Beach,Virginia ,VA,23462,36.827826,-76.13819,https://www.bryantstratton.edu/
Bryant & Stratton College-Wauwatosa,Wauwatosa,Wisconsin ,WI,53226,43.043215,-88.050983,https://www.bryantstratton.edu/
Bryant University,Smithfield,Rhode Island ,RI,02917-1291,41.920092,-71.539547,https://www.bryant.edu/
Bryn Athyn College of the New Church,Bryn Athyn,Pennsylvania ,PA,19009-0717,40.134393,-75.060808,www.brynathyn.edu/
Bryn Mawr College,Bryn Mawr,Pennsylvania ,PA,19010,40.02736,-75.313223,www.brynmawr.edu/
Buckeye Hills Career Center,Rio Grande,Ohio ,OH,45674-0157,38.892181,-82.388043,www.buckeyehills.net/
Buckeye Joint Vocational School,New Philadelphia,Ohio ,OH,44663-9450,40.470531,-81.401957,www.buckeyecareercenter.org/
Bucknell University,Lewisburg,Pennsylvania ,PA,17837,40.954317,-76.882616,www.bucknell.edu/
Buckner Barber School,Dallas,Texas ,TX,75217-1775,32.737175,-96.684709,bucknerbarberschool.com/
Bucks County Community College,Newtown,Pennsylvania ,PA,18940-4106,40.239102,-74.965841,www.bucks.edu/
Bucks County Community College-Gene and Marlene Epstein Campus at Lower Bucks,Bristol,Pennsylvania ,PA,19007-0277,nan,nan,www.bucks.edu/
Bucks County Community College-Upper Bucks Campus,Perkasie,Pennsylvania ,PA,18944-0277,nan,nan,www.bucks.edu/
Bucks County School of Beauty Culture Inc,Feasterville,Pennsylvania ,PA,19053-7368,40.166449,-75.007054,www.bcsbc.edu/
Buena Vista University,Storm Lake,Iowa ,IA,50588,42.642255,-95.208529,https://www.bvu.edu/
Bull City Durham Beauty and Barber College,Durham,North Carolina ,NC,27701,35.989115,-78.889993,www.bullcitybarbercollege.com/
Bunker Hill Community College,Boston,Massachusetts ,MA,02129-2925,42.374806,-71.069263,www.bhcc.mass.edu/
Burrell College of Osteopathic Medicine,Las Cruces,New Mexico ,NM,88001,32.278068,-106.737787,https://burrell.edu/
Bushnell University,Eugene,Oregon ,OR,97401-3745,44.047483,-123.079754,www.bushnell.edu/
Butler Beauty Academy,Butler,Pennsylvania ,PA,16001,40.859152,-79.895107,beautyacademies.net/
Butler Beauty Academy-Kittanning Beauty Academy,Kittanning,Pennsylvania ,PA,16201,40.813778,-79.52003,beautyacademies.net/
Butler Beauty Academy-New Castle Beauty Academy,New Castle,Pennsylvania ,PA,16101,40.999207,-80.341891,beautyacademies.net/
Butler Community College,El Dorado,Kansas ,KS,67042-3280,37.806699,-96.882987,www.butlercc.edu/
Butler County Community College,Butler,Pennsylvania ,PA,16002,40.829364,-79.911433,www.bc3.edu/
Butler Technology and Career Development Schools,Monroe,Ohio ,OH,45050,39.44114,-84.431434,www.butlertech.org/
Butler University,Indianapolis,Indiana ,IN,46208,39.8374,-86.172167,www.butler.edu/
Butte Academy of Beauty Culture,Butte,Montana ,MT,59701,46.01274,-112.540982,butteacademyofbeauty.ipage.com/
Butte College,Oroville,California ,CA,95965-8399,39.649782,-121.644831,www.butte.edu/
Butte County Regional Occupational Program,Chico,California ,CA,95928-7191,39.715283,-121.804024,ctec.bcoe.org/
Byzantine Catholic Seminary of Saints Cyril and Methodius,Pittsburgh,Pennsylvania ,PA,15214-2229,40.484409,-80.015825,www.bcs.edu/
CAAN Academy of Nursing,Matteson,Illinois ,IL,60443-3821,41.505272,-87.731726,caanacademy.org/
CALC Institute of Technology,Alton,Illinois ,IL,62002,38.927494,-90.175979,calc.edu/
CBD College,Los Angeles,California ,CA,90010,34.06231,-118.306221,www.cbd.edu/
CBT Technology Institute-Cutler Bay,Cutler Bay,Florida ,FL,33157,25.590468,-80.356565,www.cbt.edu/
CBT Technology Institute-Hialeah,Hialeah,Florida ,FL,33012,25.867003,-80.302213,www.cbt.edu/
CBT Technology Institute-Main Campus,Miami,Florida ,FL,33144,25.769052,-80.329161,www.cbt.edu/
CCI Training Center,Dallas,Texas ,TX,75231,nan,nan,ccitraining.edu/
CCI Training Center-Arlington,Arlington,Texas ,TX,76011,32.755006,-97.101289,www.ccitraining.edu/
CDA Technical Institute,Jacksonville,Florida ,FL,32208,30.392267,-81.646792,cda.edu/
CDE Career Institute,Tannersville,Pennsylvania ,PA,18372,41.033423,-75.303611,www.cde.edu/
CEM College-Bayamon,Bayamn,Puerto Rico ,PR,00961,18.398651,-66.155406,www.cemcollege.edu/
CEM College-Humacao,Humacao,Puerto Rico ,PR,00791-4210,18.148771,-65.821107,https://www.cemcollege.edu/cem/
CEM College-Mayaguez,Mayaguez,Puerto Rico ,PR,00680-0000,18.199097,-67.146379,www.cemcollege.edu/cem/
CEM College-San Juan,San Juan,Puerto Rico ,PR,00926-1931,18.393955,-66.035797,www.cemcollege.edu/cem/
CES College,Burbank,California ,CA,91502-2750,34.180401,-118.303297,www.cescollege.edu/
CET-Alexandria,Alexandria,Virginia ,VA,22312,38.802702,-77.142637,https://cetweb.edu/
CET-Coachella,Coachella,California ,CA,92236,33.692248,-116.185875,https://cetweb.edu/
CET-Colton,Colton,California ,CA,92324,34.077381,-117.353488,https://cetweb.edu/
CET-El Centro,El Centro,California ,CA,92243,32.790908,-115.549079,https://cetweb.edu/
CET-El Paso,El Paso,Texas ,TX,79907,31.696199,-106.323115,https://cetweb.edu/
CET-Oxnard,Oxnard,California ,CA,93030,34.194208,-119.18145,https://cetweb.edu/
CET-Salinas,Salinas,California ,CA,93906,36.707333,-121.65236,https://cetweb.edu/
CET-San Diego,San Diego,California ,CA,92102,32.711302,-117.105328,https://www.cetweb.edu/
CET-San Jose,San Jose,California ,CA,95110,37.322723,-121.88698,https://cetweb.edu/
CET-Santa Maria,Santa Maria,California ,CA,93458,34.943576,-120.441978,https://www.cetweb.edu/
CET-Soledad,Soledad,California ,CA,93960-2996,36.41456,-121.316599,https://cetweb.edu/
CET-Watsonville,Watsonville,California ,CA,95076,36.931833,-121.767991,https://www.cetweb.edu/
CHI Health School of Radiologic Technology,Omaha,Nebraska ,NE,68122,41.32206,-96.020431,www.chihealth.com/school-of-radiologic-technology
CRU Institute of Cosmetology and Barbering,Garden Grove,California ,CA,92845-4321,33.790145,-118.030758,www.cruinstitute.com/
CT Aero Tech School,Hartford,Connecticut ,CT,06114,41.735051,-72.652583,ctaero.cttech.org/
CUNY Bernard M Baruch College,New York,New York ,NY,10010,40.740238,-73.983417,www.baruch.cuny.edu/
CUNY Borough of Manhattan Community College,New York,New York ,NY,10007,40.71879,-74.011826,www.bmcc.cuny.edu/
CUNY Bronx Community College,Bronx,New York ,NY,10453,40.858112,-73.912043,www.bcc.cuny.edu/
CUNY Brooklyn College,Brooklyn,New York ,NY,11210,40.631517,-73.949898,www.brooklyn.cuny.edu/
CUNY Brooklyn College - Feirstein Graduate School of Cinema,Brooklyn,New York ,NY,11205-1202,nan,nan,www.brooklyn.cuny.edu/web/academics/schools/mediaarts/schools/feirstein.php
CUNY City College,New York,New York ,NY,10031,40.819846,-73.948542,www.ccny.cuny.edu/
CUNY Graduate School and University Center,New York,New York ,NY,10016,40.748612,-73.983822,www.gc.cuny.edu/
CUNY Hostos Community College,Bronx,New York ,NY,10451,40.81812,-73.926759,www.hostos.cuny.edu/
CUNY Hunter College,New York,New York ,NY,10065,40.768669,-73.964795,www.hunter.cuny.edu/
CUNY John Jay College of Criminal Justice,New York,New York ,NY,10019,40.770351,-73.98841,www.jjay.cuny.edu/
CUNY Kingsborough Community College,Brooklyn,New York ,NY,11235,40.577222,-73.935812,www.kbcc.cuny.edu/
CUNY LaGuardia Community College,Long Island City,New York ,NY,11101,40.7445,-73.935057,www.lagcc.cuny.edu/
CUNY Lehman College,Bronx,New York ,NY,10468,40.872962,-73.895379,www.lehman.edu/
CUNY Medgar Evers College,Brooklyn,New York ,NY,11225,40.666256,-73.957076,https://ares.mec.cuny.edu/
CUNY New York City College of Technology,Brooklyn,New York ,NY,11201,40.695483,-73.987856,www.citytech.cuny.edu/
CUNY Queens College,Queens,New York ,NY,11367,40.735182,-73.816098,https://www.qc.cuny.edu/
CUNY Queensborough Community College,Bayside,New York ,NY,11364-1497,40.755481,-73.756656,www.qcc.cuny.edu/
CUNY School of Law,Long Island City,New York ,NY,11101,40.747797,-73.943621,www.law.cuny.edu/
CUNY Stella and Charles Guttman Community College,New York,New York ,NY,10018-2602,40.75281,-73.984131,https://www.guttman.cuny.edu/
CUNY York College,Jamaica,New York ,NY,11451,40.701576,-73.796313,www.york.cuny.edu/
CVPH Medical Center School of Radiologic Technology,Plattsburgh,New York ,NY,12901-1438,44.699929,-73.469597,www.cvph.org/Residency-and-Education/School-of-Radiology/
Cabarrus College of Health Sciences,Concord,North Carolina ,NC,28025-3959,35.440038,-80.600824,www.atriumhealth.org/education/cabarrus-college-of-health-sciences
Cabell County Career Technology Center,Huntington,West Virginia ,WV,25705-2827,38.403244,-82.372418,www.cabellschools.com/Domain/12
Cabrillo College,Aptos,California ,CA,95003,36.989448,-121.924797,https://www.cabrillo.edu/
Cabrini University,Radnor,Pennsylvania ,PA,19087-3698,40.056355,-75.375263,www.cabrini.edu/
Caddo Kiowa Technology Center,Fort Cobb,Oklahoma ,OK,73038-0190,35.108561,-98.443443,cktc.edu/
Cadillac Institute of Cosmetology,Cadillac,Michigan ,MI,49601-1800,44.251375,-85.400655,instituteofcos.com/
Cairn University-Langhorne,Langhorne,Pennsylvania ,PA,19047-2990,40.165809,-74.909509,www.cairn.edu/
Caldwell Community College and Technical Institute,Hudson,North Carolina ,NC,28638,35.854604,-81.484148,https://www.cccti.edu/
Caldwell University,Caldwell,New Jersey ,NJ,07006-6195,40.832753,-74.272571,www.caldwell.edu/
California Aeronautical University,Bakersfield,California ,CA,93308,35.434905,-119.049264,www.calaero.edu/
California Arts University,Fullerton,California ,CA,92833,33.869778,-117.980622,https://www.cauniv.edu/
California Baptist University,Riverside,California ,CA,92504-3297,33.929321,-117.425619,www.calbaptist.edu/
California Barber and Beauty College,San Diego,California ,CA,92115-4730,32.757282,-117.0814,https://www.californiabarberandbeauty.com/
California Beauty School,Modesto,California ,CA,95354,37.645217,-120.99689,www.calbeautycollege.edu/
California Career College,Canoga Park,California ,CA,91303-2006,34.197566,-118.601794,www.californiacareercollege.edu/
California Career Institute,Anaheim,California ,CA,92806,33.816691,-117.887923,www.calinstitute.edu/
California Career School,Anaheim,California ,CA,92805,33.819547,-117.906219,www.californiacareerschool.edu
California Christian College,Fresno,California ,CA,93727,36.749366,-119.711123,www.calchristiancollege.edu/
California College San Diego,San Marcos,California ,CA,92069-2971,33.138303,-117.160658,www.cc-sd.edu/
California College San Diego,San Diego,California ,CA,92111,32.835221,-117.166966,www.cc-sd.edu/
California College San Diego-CollegeAmerica-Phoenix,Phoenix,Arizona ,AZ,85051,33.574685,-112.117971,www.collegeamerica.edu/
California College of Barbering and Cosmetology,Stockton,California ,CA,95210,38.000656,-121.293756,calcbc.com/
California College of the Arts,San Francisco,California ,CA,94107-2247,37.767485,-122.399451,www.cca.edu/
California Hair Design Academy,La Mesa,California ,CA,91942-5055,32.765221,-117.024261,https://chdaschools.com/
California Healing Arts College,Carson,California ,CA,90746-7323,33.844718,-118.265919,www.chac.edu/
California Health Sciences University,Clovis,California ,CA,93612,36.832466,-119.701977,https://chsu.edu/
California Indian Nations College,Palm Desert,California ,CA,92211,33.773732,-116.353365,https://cincollege.org/
California Institute of Advanced Management,Alhambra,California ,CA,91803,34.082467,-118.15055,ciam.edu/
California Institute of Arts & Technology,San Diego,California ,CA,92108-3822,32.770776,-117.134199,www.ciat.edu/
California Institute of Arts & Technology-National City,National City,California ,CA,91950-6610,32.661577,-117.106076,https://www.ciat.edu/
California Institute of Integral Studies,San Francisco,California ,CA,94103,37.774924,-122.416102,www.ciis.edu/
California Institute of Medical Science,Clovis,California ,CA,93612-0000,36.810031,-119.694271,cims.edu/
California Institute of Technology,Pasadena,California ,CA,91125,34.137349,-118.125878,www.caltech.edu/
California Institute of the Arts,Valencia,California ,CA,91355-2397,34.39327,-118.566837,https://www.calarts.edu/
California Intercontinental University,Irvine,California ,CA,92614,33.696413,-117.850961,https://www.caluniversity.edu/
California Jazz Conservatory,Berkeley,California ,CA,94704-1268,37.871235,-122.268878,www.cjc.edu/
California Lutheran University,Thousand Oaks,California ,CA,91360-2787,34.224566,-118.878924,www.callutheran.edu/
California Miramar University,San Diego,California ,CA,92108,32.77942,-117.11851,www.calmu.edu/
California Nurses Educational Institute,Palm Springs,California ,CA,92264,33.816672,-116.490142,https://www.cnei.edu/
California Polytechnic State University-San Luis Obispo,San Luis Obispo,California ,CA,93407,35.299513,-120.657311,calpoly.edu/
California State Polytechnic University-Humboldt,Arcata,California ,CA,95521-8299,40.877481,-124.078293,www.humboldt.edu/
California State Polytechnic University-Pomona,Pomona,California ,CA,91768,34.057912,-117.821476,www.cpp.edu/
California State University Maritime Academy,Vallejo,California ,CA,94590-8181,38.069061,-122.231551,https://www.csum.edu/
California State University-Bakersfield,Bakersfield,California ,CA,93311-1099,35.350005,-119.104711,www.csub.edu/
California State University-Channel Islands,Camarillo,California ,CA,93012,34.162949,-119.04356,www.csuci.edu/
California State University-Chico,Chico,California ,CA,95929-0150,39.729712,-121.844859,www.csuchico.edu/
California State University-Dominguez Hills,Carson,California ,CA,90747-0005,33.864766,-118.255917,https://www.csudh.edu/
California State University-East Bay,Hayward,California ,CA,94542,37.657694,-122.054135,www.csueastbay.edu/
California State University-Fresno,Fresno,California ,CA,93740,36.811154,-119.744569,www.fresnostate.edu/
California State University-Fullerton,Fullerton,California ,CA,92831-3599,33.881506,-117.885446,www.fullerton.edu/
California State University-Long Beach,Long Beach,California ,CA,90840-0115,33.782818,-118.11204,www.csulb.edu/
California State University-Los Angeles,Los Angeles,California ,CA,90032-8506,34.066927,-118.168965,https://www.calstatela.edu/
California State University-Monterey Bay,Seaside,California ,CA,93955-8001,36.652397,-121.796178,www.csumb.edu/
California State University-Northridge,Northridge,California ,CA,91330,34.240126,-118.529319,https://www.csun.edu/
California State University-Sacramento,Sacramento,California ,CA,95819-2694,38.559415,-121.423549,https://www.csus.edu/
California State University-San Bernardino,San Bernardino,California ,CA,92407-2393,34.182622,-117.323801,www.csusb.edu/
California State University-San Marcos,San Marcos,California ,CA,92096-0001,33.130569,-117.159013,www.csusm.edu/
California State University-Stanislaus,Turlock,California ,CA,95382-0299,37.52577,-120.852511,https://www.csustan.edu/
California Technical Academy,Riverside,California ,CA,92507,34.002717,-117.339245,www.cta.edu/
California University of Pennsylvania,California,Pennsylvania ,PA,15419-1394,40.064964,-79.88679,www.calu.edu/
California University of Science and Medicine,Colton,California ,CA,92324-1603,34.077252,-117.350487,https://www.cusm.org/
California Western School of Law,San Diego,California ,CA,92101-3046,32.722192,-117.162416,https://www.cwsl.edu/
Calumet College of Saint Joseph,Whiting,Indiana ,IN,46394,41.671008,-87.494123,www.ccsj.edu/
Calvary University,Kansas City,Missouri ,MO,64147-1341,38.839578,-94.547927,www.calvary.edu/
Calvin Theological Seminary,Grand Rapids,Michigan ,MI,49546-4387,42.927951,-85.586439,www.calvinseminary.edu/
Calvin University,Grand Rapids,Michigan ,MI,49546,42.929916,-85.587548,www.calvin.edu/
Calvin University - Handlon Campus,Ionia,Michigan ,MI,48846-9571,nan,nan,https://calvin.edu/prison-initiative/index.html
Cambridge College,Boston,Massachusetts ,MA,02129,42.381091,-71.072646,www.cambridgecollege.edu/
Cambridge College of Healthcare & Technology,Delray Beach,Florida ,FL,33484,26.438379,-80.123788,www.cambridgehealth.edu/
Cambridge College of Healthcare & Technology,Atlanta,Georgia ,GA,30342-1731,nan,nan,www.cambridgehealth.edu/
Cambridge Institute of Allied Health & Technology,Altamonte Springs,Florida ,FL,32701,28.66306,-81.375722,www.cambridgehealth.edu/
Cambridge Technical Institute,Caguas,Puerto Rico ,PR,00705,18.399839,-66.052442,www.cti.edu/
Camden County College,Blackwood,New Jersey ,NJ,08012,39.784874,-75.038381,https://www.camdencc.edu/
Cameo Beauty Academy,Oak Lawn,Illinois ,IL,60453,41.716051,-87.740894,www.cameobeautyacademy.com/
